{
"type": "FeatureCollection",
"crs": { "type": "name", "properties": { "name": "urn:ogc:def:crs:OGC:1.3:CRS84" } },
"features": [
{ "type": "Feature", "properties": { "koatuu": "0525087501", "nameua_new": "Попова Гребля", "codename": "село", "year_gp": 1967 }, "geometry": { "type": "Point", "coordinates": [ 29.29354, 48.13269 ] } },
{ "type": "Feature", "properties": { "koatuu": "0525087502", "nameua_new": "Новоукраїнка", "codename": "село", "year_gp": null }, "geometry": { "type": "Point", "coordinates": [ 29.35034, 48.10836 ] } },
{ "type": "Feature", "properties": { "koatuu": "0522487402", "nameua_new": "Лисогірка", "codename": "село", "year_gp": 1974 }, "geometry": { "type": "Point", "coordinates": [ 27.86891, 49.47292 ] } },
{ "type": "Feature", "properties": { "koatuu": "0522486804", "nameua_new": "Осічок", "codename": "село", "year_gp": 1980 }, "geometry": { "type": "Point", "coordinates": [ 27.76377, 49.45156 ] } },
{ "type": "Feature", "properties": { "koatuu": "0522487401", "nameua_new": "Шевченка", "codename": "село", "year_gp": 1971 }, "geometry": { "type": "Point", "coordinates": [ 27.87261, 49.44839 ] } },
{ "type": "Feature", "properties": { "koatuu": "0522486801", "nameua_new": "Теси", "codename": "село", "year_gp": 1971 }, "geometry": { "type": "Point", "coordinates": [ 27.77776, 49.46817 ] } },
{ "type": "Feature", "properties": { "koatuu": "0522486803", "nameua_new": "Лука", "codename": "село", "year_gp": 1983 }, "geometry": { "type": "Point", "coordinates": [ 27.8156, 49.43635 ] } },
{ "type": "Feature", "properties": { "koatuu": "0522486802", "nameua_new": "Іванівці", "codename": "село", "year_gp": 1980 }, "geometry": { "type": "Point", "coordinates": [ 27.82658, 49.46133 ] } },
{ "type": "Feature", "properties": { "koatuu": "0520887603", "nameua_new": "Ярмолинці", "codename": "село", "year_gp": 1987 }, "geometry": { "type": "Point", "coordinates": [ 29.27572, 48.75944 ] } },
{ "type": "Feature", "properties": { "koatuu": "0520887606", "nameua_new": "Басаличівка", "codename": "село", "year_gp": 1993 }, "geometry": { "type": "Point", "coordinates": [ 29.25995, 48.72684 ] } },
{ "type": "Feature", "properties": { "koatuu": "0520280613", "nameua_new": "Міжлісся", "codename": "село", "year_gp": 1973 }, "geometry": { "type": "Point", "coordinates": [ 27.74481, 49.04658 ] } },
{ "type": "Feature", "properties": { "koatuu": "0524585303", "nameua_new": "Пирогів", "codename": "село", "year_gp": 1973 }, "geometry": { "type": "Point", "coordinates": [ 28.47697, 48.90559 ] } },
{ "type": "Feature", "properties": { "koatuu": "0524585301", "nameua_new": "Рахни-Польові", "codename": "село", "year_gp": 1970 }, "geometry": { "type": "Point", "coordinates": [ 28.5118, 48.91094 ] } },
{ "type": "Feature", "properties": { "koatuu": "0524586901", "nameua_new": "Уяринці", "codename": "село", "year_gp": 1971 }, "geometry": { "type": "Point", "coordinates": [ 28.48364, 48.86267 ] } },
{ "type": "Feature", "properties": { "koatuu": "0521080206", "nameua_new": "Кудіївці", "codename": "село", "year_gp": 1978 }, "geometry": { "type": "Point", "coordinates": [ 27.87397, 48.98086 ] } },
{ "type": "Feature", "properties": { "koatuu": "0521080203", "nameua_new": "Олександрівка", "codename": "село", "year_gp": 1978 }, "geometry": { "type": "Point", "coordinates": [ 27.92368, 48.99155 ] } },
{ "type": "Feature", "properties": { "koatuu": "0521080209", "nameua_new": "Повал", "codename": "село", "year_gp": 1978 }, "geometry": { "type": "Point", "coordinates": [ 27.94503, 48.98595 ] } },
{ "type": "Feature", "properties": { "koatuu": "0521487501", "nameua_new": "Тернівка", "codename": "село", "year_gp": 1967 }, "geometry": { "type": "Point", "coordinates": [ 28.44197, 49.79751 ] } },
{ "type": "Feature", "properties": { "koatuu": "0520687603", "nameua_new": "Степанівка", "codename": "село", "year_gp": 2017 }, "geometry": { "type": "Point", "coordinates": [ 28.76402, 49.13122 ] } },
{ "type": "Feature", "properties": { "koatuu": "0524582801", "nameua_new": "Довгополівка", "codename": "село", "year_gp": 1973 }, "geometry": { "type": "Point", "coordinates": [ 28.53328, 49.0287 ] } },
{ "type": "Feature", "properties": { "koatuu": "0525681301", "nameua_new": "Велика Кісниця", "codename": "село", "year_gp": 1967 }, "geometry": { "type": "Point", "coordinates": [ 28.44801, 48.13639 ] } },
{ "type": "Feature", "properties": { "koatuu": "0524587001", "nameua_new": "Черемошне", "codename": "село", "year_gp": 1969 }, "geometry": { "type": "Point", "coordinates": [ 28.41842, 48.9548 ] } },
{ "type": "Feature", "properties": { "koatuu": "0520283006", "nameua_new": "Степанки", "codename": "село", "year_gp": 1967 }, "geometry": { "type": "Point", "coordinates": [ 27.8481, 49.02049 ] } },
{ "type": "Feature", "properties": { "koatuu": "0520283003", "nameua_new": "Мальчівці", "codename": "село", "year_gp": 1968 }, "geometry": { "type": "Point", "coordinates": [ 27.77505, 48.99563 ] } },
{ "type": "Feature", "properties": { "koatuu": "0520484603", "nameua_new": "Серединка", "codename": "село", "year_gp": 1968 }, "geometry": { "type": "Point", "coordinates": [ 29.89386, 48.55823 ] } },
{ "type": "Feature", "properties": { "koatuu": "0521683806", "nameua_new": "Гулівці", "codename": "селище", "year_gp": 1983 }, "geometry": { "type": "Point", "coordinates": [ 28.59602, 49.48959 ] } },
{ "type": "Feature", "properties": { "koatuu": "0521683803", "nameua_new": "Котюжинці", "codename": "село", "year_gp": 1970 }, "geometry": { "type": "Point", "coordinates": [ 28.6315, 49.4825 ] } },
{ "type": "Feature", "properties": { "koatuu": "0525681604", "nameua_new": "Улянівка", "codename": "село", "year_gp": null }, "geometry": { "type": "Point", "coordinates": [ 28.22953, 48.22256 ] } },
{ "type": "Feature", "properties": { "koatuu": "0521481201", "nameua_new": "Воскодавинці", "codename": "село", "year_gp": 1970 }, "geometry": { "type": "Point", "coordinates": [ 28.9743, 49.53447 ] } },
{ "type": "Feature", "properties": { "koatuu": "0525681602", "nameua_new": "Біла", "codename": "село", "year_gp": 1970 }, "geometry": { "type": "Point", "coordinates": [ 28.21329, 48.24946 ] } },
{ "type": "Feature", "properties": { "koatuu": "0525681601", "nameua_new": "Гальжбіївка", "codename": "село", "year_gp": 1967 }, "geometry": { "type": "Point", "coordinates": [ 28.2217, 48.26142 ] } },
{ "type": "Feature", "properties": { "koatuu": "0510541000", "nameua_new": "Залізничне", "codename": "селища міського типу", "year_gp": null }, "geometry": { "type": "Point", "coordinates": [ 28.78861, 49.74713 ] } },
{ "type": "Feature", "properties": { "koatuu": "0525083601", "nameua_new": "Куренівка", "codename": "село", "year_gp": 1971 }, "geometry": { "type": "Point", "coordinates": [ 29.19957, 48.25551 ] } },
{ "type": "Feature", "properties": { "koatuu": "0525685501", "nameua_new": "Слобода-Підлісівська", "codename": "село", "year_gp": null }, "geometry": { "type": "Point", "coordinates": [ 28.46232, 48.22076 ] } },
{ "type": "Feature", "properties": { "koatuu": "0525685502", "nameua_new": "Підлісівка", "codename": "село", "year_gp": 1967 }, "geometry": { "type": "Point", "coordinates": [ 28.47894, 48.23705 ] } },
{ "type": "Feature", "properties": { "koatuu": "0525685503", "nameua_new": "Придністрянське", "codename": "село", "year_gp": null }, "geometry": { "type": "Point", "coordinates": [ 28.44624, 48.19502 ] } },
{ "type": "Feature", "properties": { "koatuu": "0520884803", "nameua_new": "Митків", "codename": "село", "year_gp": 1970 }, "geometry": { "type": "Point", "coordinates": [ 29.6217, 48.77906 ] } },
{ "type": "Feature", "properties": { "koatuu": "0520884806", "nameua_new": "Степове", "codename": "село", "year_gp": null }, "geometry": { "type": "Point", "coordinates": [ 29.65627, 48.80268 ] } },
{ "type": "Feature", "properties": { "koatuu": "0520884809", "nameua_new": "Тишківка", "codename": "село", "year_gp": 1973 }, "geometry": { "type": "Point", "coordinates": [ 29.58649, 48.79475 ] } },
{ "type": "Feature", "properties": { "koatuu": "0524583205", "nameua_new": "Онитківці", "codename": "село", "year_gp": 1972 }, "geometry": { "type": "Point", "coordinates": [ 28.53638, 48.94224 ] } },
{ "type": "Feature", "properties": { "koatuu": "0524583201", "nameua_new": "Жахнівка", "codename": "село", "year_gp": 1969 }, "geometry": { "type": "Point", "coordinates": [ 28.57545, 48.93583 ] } },
{ "type": "Feature", "properties": { "koatuu": "0524583203", "nameua_new": "Івонівці", "codename": "село", "year_gp": 1972 }, "geometry": { "type": "Point", "coordinates": [ 28.58547, 48.9056 ] } },
{ "type": "Feature", "properties": { "koatuu": "0522281403", "nameua_new": "Олександрівка", "codename": "село", "year_gp": null }, "geometry": { "type": "Point", "coordinates": [ 29.04381, 49.34375 ] } },
{ "type": "Feature", "properties": { "koatuu": "0522281401", "nameua_new": "Зозів", "codename": "село", "year_gp": 1967 }, "geometry": { "type": "Point", "coordinates": [ 29.01617, 49.31705 ] } },
{ "type": "Feature", "properties": { "koatuu": "0521981801", "nameua_new": "Дахталія", "codename": "село", "year_gp": 1969 }, "geometry": { "type": "Point", "coordinates": [ 28.5773, 48.39332 ] } },
{ "type": "Feature", "properties": { "koatuu": "0521981802", "nameua_new": "Мар'янівка", "codename": "село", "year_gp": 1972 }, "geometry": { "type": "Point", "coordinates": [ 28.61573, 48.40389 ] } },
{ "type": "Feature", "properties": { "koatuu": "0521981803", "nameua_new": "Мар'янівське", "codename": "селище", "year_gp": null }, "geometry": { "type": "Point", "coordinates": [ 28.63797, 48.40614 ] } },
{ "type": "Feature", "properties": { "koatuu": "0520885603", "nameua_new": "Степашки", "codename": "село", "year_gp": 1969 }, "geometry": { "type": "Point", "coordinates": [ 29.13997, 48.73272 ] } },
{ "type": "Feature", "properties": { "koatuu": "0523185002", "nameua_new": "Вербівка", "codename": "село", "year_gp": 1976 }, "geometry": { "type": "Point", "coordinates": [ 29.43822, 49.2929 ] } },
{ "type": "Feature", "properties": { "koatuu": "0523786202", "nameua_new": "Кам'янки", "codename": "село", "year_gp": 1973 }, "geometry": { "type": "Point", "coordinates": [ 29.85093, 48.67845 ] } },
{ "type": "Feature", "properties": { "koatuu": "0524385402", "nameua_new": "Пестеля", "codename": "селище", "year_gp": null }, "geometry": { "type": "Point", "coordinates": [ 28.88519, 48.63139 ] } },
{ "type": "Feature", "properties": { "koatuu": "0524385401", "nameua_new": "Суворовське", "codename": "село", "year_gp": 1970 }, "geometry": { "type": "Point", "coordinates": [ 28.82613, 48.626 ] } },
{ "type": "Feature", "properties": { "koatuu": "0524887202", "nameua_new": "Держанівка", "codename": "село", "year_gp": null }, "geometry": { "type": "Point", "coordinates": [ 27.80324, 49.69348 ] } },
{ "type": "Feature", "properties": { "koatuu": "0524887203", "nameua_new": "Софіївка", "codename": "село", "year_gp": null }, "geometry": { "type": "Point", "coordinates": [ 27.7814, 49.68567 ] } },
{ "type": "Feature", "properties": { "koatuu": "0524887201", "nameua_new": "Терешпіль", "codename": "село", "year_gp": 1974 }, "geometry": { "type": "Point", "coordinates": [ 27.79433, 49.68246 ] } },
{ "type": "Feature", "properties": { "koatuu": "0524887204", "nameua_new": "Українське", "codename": "село", "year_gp": null }, "geometry": { "type": "Point", "coordinates": [ 27.82789, 49.65293 ] } },
{ "type": "Feature", "properties": { "koatuu": "0523783003", "nameua_new": "Іванів", "codename": "село", "year_gp": null }, "geometry": { "type": "Point", "coordinates": [ 29.81568, 48.74789 ] } },
{ "type": "Feature", "properties": { "koatuu": "0524580401", "nameua_new": "Бушинка", "codename": "село", "year_gp": 1971 }, "geometry": { "type": "Point", "coordinates": [ 28.46165, 48.83375 ] } },
{ "type": "Feature", "properties": { "koatuu": "0523783007", "nameua_new": "Шевченківка", "codename": "село", "year_gp": null }, "geometry": { "type": "Point", "coordinates": [ 29.84371, 48.75617 ] } },
{ "type": "Feature", "properties": { "koatuu": "0523783005", "nameua_new": "Розкошівка", "codename": "селище", "year_gp": 1972 }, "geometry": { "type": "Point", "coordinates": [ 29.79025, 48.75316 ] } },
{ "type": "Feature", "properties": { "koatuu": "0521286103", "nameua_new": "Росоховата", "codename": "село", "year_gp": 1970 }, "geometry": { "type": "Point", "coordinates": [ 29.62833, 49.0068 ] } },
{ "type": "Feature", "properties": { "koatuu": "0521286106", "nameua_new": "Петро-Марківка", "codename": "село", "year_gp": 1993 }, "geometry": { "type": "Point", "coordinates": [ 29.66884, 49.00786 ] } },
{ "type": "Feature", "properties": { "koatuu": "0520682203", "nameua_new": "Ільківка", "codename": "село", "year_gp": 1980 }, "geometry": { "type": "Point", "coordinates": [ 28.2924, 49.14377 ] } },
{ "type": "Feature", "properties": { "koatuu": "0520682206", "nameua_new": "Горбанівка", "codename": "село", "year_gp": 1970 }, "geometry": { "type": "Point", "coordinates": [ 28.31576, 49.152 ] } },
{ "type": "Feature", "properties": { "koatuu": "0521683603", "nameua_new": "Корделівка", "codename": "село", "year_gp": 1984 }, "geometry": { "type": "Point", "coordinates": [ 28.54569, 49.52028 ] } },
{ "type": "Feature", "properties": { "koatuu": "0520485803", "nameua_new": "Війтівка", "codename": "село", "year_gp": 1986 }, "geometry": { "type": "Point", "coordinates": [ 29.54725, 48.41617 ] } },
{ "type": "Feature", "properties": { "koatuu": "0521683606", "nameua_new": "Загребельня", "codename": "село", "year_gp": 1983 }, "geometry": { "type": "Point", "coordinates": [ 28.55158, 49.53554 ] } },
{ "type": "Feature", "properties": { "koatuu": "0524981505", "nameua_new": "Трактове", "codename": "селище", "year_gp": 1987 }, "geometry": { "type": "Point", "coordinates": [ 28.25515, 48.53226 ] } },
{ "type": "Feature", "properties": { "koatuu": "0521485003", "nameua_new": "Михайлин", "codename": "село", "year_gp": 1974 }, "geometry": { "type": "Point", "coordinates": [ 28.80751, 49.5873 ] } },
{ "type": "Feature", "properties": { "koatuu": "0521485006", "nameua_new": "Широка Гребля", "codename": "село", "year_gp": 1979 }, "geometry": { "type": "Point", "coordinates": [ 28.83063, 49.57647 ] } },
{ "type": "Feature", "properties": { "koatuu": "0522885201", "nameua_new": "Плоске", "codename": "село", "year_gp": 1969 }, "geometry": { "type": "Point", "coordinates": [ 27.84806, 48.67892 ] } },
{ "type": "Feature", "properties": { "koatuu": "0522481801", "nameua_new": "Громадське", "codename": "село", "year_gp": 1986 }, "geometry": { "type": "Point", "coordinates": [ 27.95058, 49.38108 ] } },
{ "type": "Feature", "properties": { "koatuu": "0522481803", "nameua_new": "Кусиківці", "codename": "село", "year_gp": 1986 }, "geometry": { "type": "Point", "coordinates": [ 27.92307, 49.4099 ] } },
{ "type": "Feature", "properties": { "koatuu": "0521684012", "nameua_new": "Райки", "codename": "село", "year_gp": 1990 }, "geometry": { "type": "Point", "coordinates": [ 28.49365, 49.64938 ] } },
{ "type": "Feature", "properties": { "koatuu": "0522855100", "nameua_new": "Муровані Курилівці", "codename": "селища міського типу", "year_gp": 1992 }, "geometry": { "type": "Point", "coordinates": [ 27.52369, 48.72043 ] } },
{ "type": "Feature", "properties": { "koatuu": "0523283401", "nameua_new": "Чорномин", "codename": "село", "year_gp": 1967 }, "geometry": { "type": "Point", "coordinates": [ 29.00501, 48.22223 ] } },
{ "type": "Feature", "properties": { "koatuu": "0524980313", "nameua_new": "Нове Життя", "codename": "село", "year_gp": 1983 }, "geometry": { "type": "Point", "coordinates": [ 28.1724, 48.37591 ] } },
{ "type": "Feature", "properties": { "koatuu": "0523283403", "nameua_new": "Попелюхи", "codename": "селище", "year_gp": 1969 }, "geometry": { "type": "Point", "coordinates": [ 28.96733, 48.21929 ] } },
{ "type": "Feature", "properties": { "koatuu": "0523283402", "nameua_new": "Козлівка", "codename": "село", "year_gp": 1971 }, "geometry": { "type": "Point", "coordinates": [ 29.05382, 48.22491 ] } },
{ "type": "Feature", "properties": { "koatuu": "0523283404", "nameua_new": "Рибки", "codename": "село", "year_gp": 1971 }, "geometry": { "type": "Point", "coordinates": [ 29.04422, 48.18652 ] } },
{ "type": "Feature", "properties": { "koatuu": "0520680203", "nameua_new": "Агрономічне", "codename": "село", "year_gp": 2015 }, "geometry": { "type": "Point", "coordinates": [ 28.37802, 49.1955 ] } },
{ "type": "Feature", "properties": { "koatuu": "0523084401", "nameua_new": "Криківці", "codename": "село", "year_gp": 1970 }, "geometry": { "type": "Point", "coordinates": [ 28.9911, 48.97969 ] } },
{ "type": "Feature", "properties": { "koatuu": "0525081601", "nameua_new": "Бритавка", "codename": "село", "year_gp": 1967 }, "geometry": { "type": "Point", "coordinates": [ 29.17942, 48.17139 ] } },
{ "type": "Feature", "properties": { "koatuu": "0524982003", "nameua_new": "Букатинка", "codename": "село", "year_gp": 1975 }, "geometry": { "type": "Point", "coordinates": [ 28.02858, 48.4214 ] } },
{ "type": "Feature", "properties": { "koatuu": "0524984503", "nameua_new": "Абрамівська Долина", "codename": "село", "year_gp": null }, "geometry": { "type": "Point", "coordinates": [ 28.09225, 48.51229 ] } },
{ "type": "Feature", "properties": { "koatuu": "0523185003", "nameua_new": "Кам'яногірка", "codename": "село", "year_gp": 1983 }, "geometry": { "type": "Point", "coordinates": [ 29.4703, 49.29737 ] } },
{ "type": "Feature", "properties": { "koatuu": "0524984501", "nameua_new": "Мазурівка", "codename": "село", "year_gp": 1973 }, "geometry": { "type": "Point", "coordinates": [ 28.12607, 48.5384 ] } },
{ "type": "Feature", "properties": { "koatuu": "0523185001", "nameua_new": "Скоморошки", "codename": "село", "year_gp": 1975 }, "geometry": { "type": "Point", "coordinates": [ 29.43707, 49.33159 ] } },
{ "type": "Feature", "properties": { "koatuu": "0524984507", "nameua_new": "Грабовець", "codename": "село", "year_gp": null }, "geometry": { "type": "Point", "coordinates": [ 28.17919, 48.50046 ] } },
{ "type": "Feature", "properties": { "koatuu": "0524984505", "nameua_new": "Весняне", "codename": "село", "year_gp": 1973 }, "geometry": { "type": "Point", "coordinates": [ 28.10689, 48.47391 ] } },
{ "type": "Feature", "properties": { "koatuu": "0524984509", "nameua_new": "Ромашка", "codename": "село", "year_gp": null }, "geometry": { "type": "Point", "coordinates": [ 28.09724, 48.49355 ] } },
{ "type": "Feature", "properties": { "koatuu": "0520280601", "nameua_new": "Войнашівка", "codename": "село", "year_gp": 1984 }, "geometry": { "type": "Point", "coordinates": [ 27.72165, 49.0496 ] } },
{ "type": "Feature", "properties": { "koatuu": "0520280603", "nameua_new": "Бар", "codename": "селище", "year_gp": 1979 }, "geometry": { "type": "Point", "coordinates": [ 27.71254, 49.03791 ] } },
{ "type": "Feature", "properties": { "koatuu": "0520280605", "nameua_new": "Заможне", "codename": "село", "year_gp": 1978 }, "geometry": { "type": "Point", "coordinates": [ 27.72667, 49.02584 ] } },
{ "type": "Feature", "properties": { "koatuu": "0520280607", "nameua_new": "Затоки", "codename": "село", "year_gp": 1979 }, "geometry": { "type": "Point", "coordinates": [ 27.70198, 49.02081 ] } },
{ "type": "Feature", "properties": { "koatuu": "0520280609", "nameua_new": "Каноницьке", "codename": "село", "year_gp": null }, "geometry": { "type": "Point", "coordinates": [ 27.72106, 49.01793 ] } },
{ "type": "Feature", "properties": { "koatuu": "0524387001", "nameua_new": "Шура-Копіївська", "codename": "село", "year_gp": 1990 }, "geometry": { "type": "Point", "coordinates": [ 28.66406, 48.68176 ] } },
{ "type": "Feature", "properties": { "koatuu": "0524387002", "nameua_new": "Калинівка", "codename": "село", "year_gp": 1990 }, "geometry": { "type": "Point", "coordinates": [ 28.6711, 48.63989 ] } },
{ "type": "Feature", "properties": { "koatuu": "0520480603", "nameua_new": "Бирлівка", "codename": "село", "year_gp": 1987 }, "geometry": { "type": "Point", "coordinates": [ 29.45821, 48.37879 ] } },
{ "type": "Feature", "properties": { "koatuu": "0524885201", "nameua_new": "Петриківці", "codename": "село", "year_gp": 1974 }, "geometry": { "type": "Point", "coordinates": [ 28.19906, 49.75734 ] } },
{ "type": "Feature", "properties": { "koatuu": "0524885202", "nameua_new": "Подорожня", "codename": "село", "year_gp": 1970 }, "geometry": { "type": "Point", "coordinates": [ 28.25926, 49.79207 ] } },
{ "type": "Feature", "properties": { "koatuu": "0524885203", "nameua_new": "Сміла", "codename": "село", "year_gp": 1968 }, "geometry": { "type": "Point", "coordinates": [ 28.16901, 49.77887 ] } },
{ "type": "Feature", "properties": { "koatuu": "0521085006", "nameua_new": "Межирів", "codename": "село", "year_gp": 1973 }, "geometry": { "type": "Point", "coordinates": [ 28.00589, 49.07438 ] } },
{ "type": "Feature", "properties": { "koatuu": "0521085003", "nameua_new": "Рів", "codename": "село", "year_gp": 1969 }, "geometry": { "type": "Point", "coordinates": [ 28.05458, 49.08392 ] } },
{ "type": "Feature", "properties": { "koatuu": "0520410100", "nameua_new": "Бершадь", "codename": "місто", "year_gp": 1990 }, "geometry": { "type": "Point", "coordinates": [ 29.53171, 48.36806 ] } },
{ "type": "Feature", "properties": { "koatuu": "0523782603", "nameua_new": "Цвіліхівка", "codename": "село", "year_gp": 1972 }, "geometry": { "type": "Point", "coordinates": [ 29.68217, 48.75672 ] } },
{ "type": "Feature", "properties": { "koatuu": "0523782602", "nameua_new": "Дубина", "codename": "селище", "year_gp": null }, "geometry": { "type": "Point", "coordinates": [ 29.66397, 48.7955 ] } },
{ "type": "Feature", "properties": { "koatuu": "0523782601", "nameua_new": "Кивачівка", "codename": "село", "year_gp": 1971 }, "geometry": { "type": "Point", "coordinates": [ 29.70336, 48.76696 ] } },
{ "type": "Feature", "properties": { "koatuu": "0520681003", "nameua_new": "Вінницькі Хутори", "codename": "село", "year_gp": 2017 }, "geometry": { "type": "Point", "coordinates": [ 28.55026, 49.20244 ] } },
{ "type": "Feature", "properties": { "koatuu": "0520483609", "nameua_new": "Партизанське", "codename": "селище", "year_gp": null }, "geometry": { "type": "Point", "coordinates": [ 29.71065, 48.29435 ] } },
{ "type": "Feature", "properties": { "koatuu": "0520483603", "nameua_new": "Осіївка", "codename": "село", "year_gp": 1992 }, "geometry": { "type": "Point", "coordinates": [ 29.75808, 48.33682 ] } },
{ "type": "Feature", "properties": { "koatuu": "0520483606", "nameua_new": "Мала Киріївка", "codename": "село", "year_gp": 1975 }, "geometry": { "type": "Point", "coordinates": [ 29.66975, 48.33074 ] } },
{ "type": "Feature", "properties": { "koatuu": "0521283406", "nameua_new": "Іванівка", "codename": "село", "year_gp": 1974 }, "geometry": { "type": "Point", "coordinates": [ 29.38273, 48.95974 ] } },
{ "type": "Feature", "properties": { "koatuu": "0521283403", "nameua_new": "Копіївка", "codename": "село", "year_gp": 1966 }, "geometry": { "type": "Point", "coordinates": [ 29.41712, 48.97048 ] } },
{ "type": "Feature", "properties": { "koatuu": "0524584405", "nameua_new": "Красне", "codename": "село", "year_gp": 2017 }, "geometry": { "type": "Point", "coordinates": [ 28.40207, 48.91678 ] } },
{ "type": "Feature", "properties": { "koatuu": "0524584403", "nameua_new": "Іскрівка", "codename": "село", "year_gp": 2017 }, "geometry": { "type": "Point", "coordinates": [ 28.33958, 48.8869 ] } },
{ "type": "Feature", "properties": { "koatuu": "0521283409", "nameua_new": "Олексіївка", "codename": "село", "year_gp": null }, "geometry": { "type": "Point", "coordinates": [ 29.39379, 48.93837 ] } },
{ "type": "Feature", "properties": { "koatuu": "0521482203", "nameua_new": "Збараж", "codename": "село", "year_gp": 1969 }, "geometry": { "type": "Point", "coordinates": [ 28.86254, 49.49589 ] } },
{ "type": "Feature", "properties": { "koatuu": "0524386601", "nameua_new": "Торків", "codename": "село", "year_gp": 1971 }, "geometry": { "type": "Point", "coordinates": [ 28.69224, 48.76608 ] } },
{ "type": "Feature", "properties": { "koatuu": "0523055600", "nameua_new": "Ситківці", "codename": "селища міського типу", "year_gp": 1973 }, "geometry": { "type": "Point", "coordinates": [ 29.20163, 48.91066 ] } },
{ "type": "Feature", "properties": { "koatuu": "0525380501", "nameua_new": "Гибалівка", "codename": "село", "year_gp": 1970 }, "geometry": { "type": "Point", "coordinates": [ 28.10062, 48.72323 ] } },
{ "type": "Feature", "properties": { "koatuu": "0525380502", "nameua_new": "Борівське", "codename": "село", "year_gp": null }, "geometry": { "type": "Point", "coordinates": [ 28.1339, 48.72393 ] } },
{ "type": "Feature", "properties": { "koatuu": "0525380503", "nameua_new": "Дерев'янки", "codename": "село", "year_gp": null }, "geometry": { "type": "Point", "coordinates": [ 28.11834, 48.71351 ] } },
{ "type": "Feature", "properties": { "koatuu": "0525380504", "nameua_new": "Кропивня", "codename": "село", "year_gp": null }, "geometry": { "type": "Point", "coordinates": [ 28.14324, 48.69566 ] } },
{ "type": "Feature", "properties": { "koatuu": "0525380505", "nameua_new": "Лукашівка", "codename": "селище", "year_gp": null }, "geometry": { "type": "Point", "coordinates": [ 28.17364, 48.72826 ] } },
{ "type": "Feature", "properties": { "koatuu": "0525380506", "nameua_new": "Мишівське", "codename": "селище", "year_gp": null }, "geometry": { "type": "Point", "coordinates": [ 28.11309, 48.69197 ] } },
{ "type": "Feature", "properties": { "koatuu": "0525380507", "nameua_new": "Роля", "codename": "село", "year_gp": null }, "geometry": { "type": "Point", "coordinates": [ 28.17763, 48.70281 ] } },
{ "type": "Feature", "properties": { "koatuu": "0525380508", "nameua_new": "Сурогатка", "codename": "село", "year_gp": null }, "geometry": { "type": "Point", "coordinates": [ 28.1404, 48.70664 ] } },
{ "type": "Feature", "properties": { "koatuu": "0520481606", "nameua_new": "Берізки-Бершадські", "codename": "село", "year_gp": 1971 }, "geometry": { "type": "Point", "coordinates": [ 29.7234, 48.41516 ] } },
{ "type": "Feature", "properties": { "koatuu": "0520481603", "nameua_new": "Джулинка", "codename": "село", "year_gp": 1986 }, "geometry": { "type": "Point", "coordinates": [ 29.74778, 48.43969 ] } },
{ "type": "Feature", "properties": { "koatuu": "0521084203", "nameua_new": "Носківці", "codename": "село", "year_gp": 1966 }, "geometry": { "type": "Point", "coordinates": [ 27.97222, 48.95925 ] } },
{ "type": "Feature", "properties": { "koatuu": "0521084206", "nameua_new": "Демків", "codename": "село", "year_gp": null }, "geometry": { "type": "Point", "coordinates": [ 28.0219, 48.9679 ] } },
{ "type": "Feature", "properties": { "koatuu": "0524883303", "nameua_new": "Слобода-Кустовецька", "codename": "село", "year_gp": 1979 }, "geometry": { "type": "Point", "coordinates": [ 28.40204, 49.71321 ] } },
{ "type": "Feature", "properties": { "koatuu": "0522286402", "nameua_new": "Ганнівка", "codename": "село", "year_gp": 1973 }, "geometry": { "type": "Point", "coordinates": [ 29.07951, 49.30088 ] } },
{ "type": "Feature", "properties": { "koatuu": "0522286401", "nameua_new": "Славна", "codename": "село", "year_gp": 2016 }, "geometry": { "type": "Point", "coordinates": [ 29.04086, 49.27678 ] } },
{ "type": "Feature", "properties": { "koatuu": "0521080212", "nameua_new": "Шевченкове", "codename": "селище", "year_gp": 1978 }, "geometry": { "type": "Point", "coordinates": [ 27.9045, 48.9719 ] } },
{ "type": "Feature", "properties": { "koatuu": "0522882301", "nameua_new": "Дерешова", "codename": "село", "year_gp": 1973 }, "geometry": { "type": "Point", "coordinates": [ 27.52254, 48.77494 ] } },
{ "type": "Feature", "properties": { "koatuu": "0523086401", "nameua_new": "Райгород", "codename": "село", "year_gp": 1968 }, "geometry": { "type": "Point", "coordinates": [ 29.08081, 48.88375 ] } },
{ "type": "Feature", "properties": { "koatuu": "0523086402", "nameua_new": "Нижча Кропивна", "codename": "село", "year_gp": 1975 }, "geometry": { "type": "Point", "coordinates": [ 29.13833, 48.85621 ] } },
{ "type": "Feature", "properties": { "koatuu": "0523086403", "nameua_new": "Слобідка", "codename": "село", "year_gp": null }, "geometry": { "type": "Point", "coordinates": [ 29.06389, 48.89826 ] } },
{ "type": "Feature", "properties": { "koatuu": "0522683502", "nameua_new": "Садова", "codename": "село", "year_gp": 1971 }, "geometry": { "type": "Point", "coordinates": [ 27.91807, 48.53688 ] } },
{ "type": "Feature", "properties": { "koatuu": "0523280301", "nameua_new": "Болган", "codename": "село", "year_gp": 1968 }, "geometry": { "type": "Point", "coordinates": [ 28.72832, 48.14085 ] } },
{ "type": "Feature", "properties": { "koatuu": "0520683503", "nameua_new": "Малі Крушлинці", "codename": "село", "year_gp": 2018 }, "geometry": { "type": "Point", "coordinates": [ 28.67574, 49.24898 ] } },
{ "type": "Feature", "properties": { "koatuu": "0524586801", "nameua_new": "Тростянець", "codename": "село", "year_gp": 1967 }, "geometry": { "type": "Point", "coordinates": [ 28.60833, 49.10483 ] } },
{ "type": "Feature", "properties": { "koatuu": "0525382802", "nameua_new": "Покутине", "codename": "село", "year_gp": 1970 }, "geometry": { "type": "Point", "coordinates": [ 28.26252, 48.63802 ] } },
{ "type": "Feature", "properties": { "koatuu": "0520883606", "nameua_new": "Кочурів", "codename": "село", "year_gp": 1989 }, "geometry": { "type": "Point", "coordinates": [ 29.40604, 48.78028 ] } },
{ "type": "Feature", "properties": { "koatuu": "0520883603", "nameua_new": "Куна", "codename": "село", "year_gp": 2017 }, "geometry": { "type": "Point", "coordinates": [ 29.34348, 48.78396 ] } },
{ "type": "Feature", "properties": { "koatuu": "0520883609", "nameua_new": "Крутогорб", "codename": "село", "year_gp": 1973 }, "geometry": { "type": "Point", "coordinates": [ 29.34679, 48.74367 ] } },
{ "type": "Feature", "properties": { "koatuu": "0523088804", "nameua_new": "Перепеличчя", "codename": "село", "year_gp": 1973 }, "geometry": { "type": "Point", "coordinates": [ 28.8767, 48.84913 ] } },
{ "type": "Feature", "properties": { "koatuu": "0523088803", "nameua_new": "Остапківці", "codename": "село", "year_gp": 1973 }, "geometry": { "type": "Point", "coordinates": [ 28.82566, 48.87933 ] } },
{ "type": "Feature", "properties": { "koatuu": "0523088801", "nameua_new": "Чуків", "codename": "село", "year_gp": 1966 }, "geometry": { "type": "Point", "coordinates": [ 28.88143, 48.89313 ] } },
{ "type": "Feature", "properties": { "koatuu": "0524381201", "nameua_new": "Заозерне", "codename": "село", "year_gp": 1971 }, "geometry": { "type": "Point", "coordinates": [ 29.15664, 48.69424 ] } },
{ "type": "Feature", "properties": { "koatuu": "0524381202", "nameua_new": "Василівка", "codename": "село", "year_gp": 1972 }, "geometry": { "type": "Point", "coordinates": [ 29.10849, 48.70097 ] } },
{ "type": "Feature", "properties": { "koatuu": "0520282603", "nameua_new": "Лісове", "codename": "село", "year_gp": 1972 }, "geometry": { "type": "Point", "coordinates": [ 27.74553, 48.82916 ] } },
{ "type": "Feature", "properties": { "koatuu": "0521985801", "nameua_new": "Павлівка", "codename": "село", "year_gp": 1969 }, "geometry": { "type": "Point", "coordinates": [ 29.06307, 48.3248 ] } },
{ "type": "Feature", "properties": { "koatuu": "0520282606", "nameua_new": "Польове", "codename": "село", "year_gp": 1977 }, "geometry": { "type": "Point", "coordinates": [ 27.69394, 48.82678 ] } },
{ "type": "Feature", "properties": { "koatuu": "0522483402", "nameua_new": "Красносілка", "codename": "селище", "year_gp": 1983 }, "geometry": { "type": "Point", "coordinates": [ 27.98542, 49.43034 ] } },
{ "type": "Feature", "properties": { "koatuu": "0522483403", "nameua_new": "Лісне", "codename": "село", "year_gp": 1983 }, "geometry": { "type": "Point", "coordinates": [ 28.00191, 49.45984 ] } },
{ "type": "Feature", "properties": { "koatuu": "0522483401", "nameua_new": "Кожухів", "codename": "село", "year_gp": 1983 }, "geometry": { "type": "Point", "coordinates": [ 27.93357, 49.45578 ] } },
{ "type": "Feature", "properties": { "koatuu": "0525387703", "nameua_new": "Будне", "codename": "село", "year_gp": 1972 }, "geometry": { "type": "Point", "coordinates": [ 28.01276, 48.71852 ] } },
{ "type": "Feature", "properties": { "koatuu": "0525387701", "nameua_new": "Слобода-Шаргородська", "codename": "село", "year_gp": 1968 }, "geometry": { "type": "Point", "coordinates": [ 28.07297, 48.73539 ] } },
{ "type": "Feature", "properties": { "koatuu": "0525387705", "nameua_new": "Грелівка", "codename": "село", "year_gp": null }, "geometry": { "type": "Point", "coordinates": [ 28.02522, 48.73619 ] } },
{ "type": "Feature", "properties": { "koatuu": "0520883003", "nameua_new": "Кузьминці", "codename": "село", "year_gp": 1970 }, "geometry": { "type": "Point", "coordinates": [ 29.16257, 48.79508 ] } },
{ "type": "Feature", "properties": { "koatuu": "0523787009", "nameua_new": "Марківка", "codename": "село", "year_gp": 1975 }, "geometry": { "type": "Point", "coordinates": [ 29.68838, 48.72015 ] } },
{ "type": "Feature", "properties": { "koatuu": "0523787007", "nameua_new": "Кублич", "codename": "селище", "year_gp": 1984 }, "geometry": { "type": "Point", "coordinates": [ 29.64285, 48.6759 ] } },
{ "type": "Feature", "properties": { "koatuu": "0523787005", "nameua_new": "Карабелівка", "codename": "село", "year_gp": 1975 }, "geometry": { "type": "Point", "coordinates": [ 29.6377, 48.70369 ] } },
{ "type": "Feature", "properties": { "koatuu": "0523787003", "nameua_new": "Важне", "codename": "село", "year_gp": 1970 }, "geometry": { "type": "Point", "coordinates": [ 29.68987, 48.69621 ] } },
{ "type": "Feature", "properties": { "koatuu": "0523787001", "nameua_new": "Степанівка", "codename": "село", "year_gp": 1970 }, "geometry": { "type": "Point", "coordinates": [ 29.67064, 48.68294 ] } },
{ "type": "Feature", "properties": { "koatuu": "0524583301", "nameua_new": "Іванківці", "codename": "село", "year_gp": 1971 }, "geometry": { "type": "Point", "coordinates": [ 28.38534, 48.95875 ] } },
{ "type": "Feature", "properties": { "koatuu": "0520883009", "nameua_new": "Сокільці", "codename": "село", "year_gp": null }, "geometry": { "type": "Point", "coordinates": [ 29.12638, 48.78889 ] } },
{ "type": "Feature", "properties": { "koatuu": "0523980303", "nameua_new": "Забіляни", "codename": "село", "year_gp": null }, "geometry": { "type": "Point", "coordinates": [ 28.55855, 48.63608 ] } },
{ "type": "Feature", "properties": { "koatuu": "0525683601", "nameua_new": "Петрашівка", "codename": "село", "year_gp": 1968 }, "geometry": { "type": "Point", "coordinates": [ 28.16306, 48.30067 ] } },
{ "type": "Feature", "properties": { "koatuu": "0525683603", "nameua_new": "Хмелівщина", "codename": "село", "year_gp": null }, "geometry": { "type": "Point", "coordinates": [ 28.19931, 48.33587 ] } },
{ "type": "Feature", "properties": { "koatuu": "0525683602", "nameua_new": "Миронівка", "codename": "село", "year_gp": 1968 }, "geometry": { "type": "Point", "coordinates": [ 28.17442, 48.30328 ] } },
{ "type": "Feature", "properties": { "koatuu": "0521082203", "nameua_new": "Кам'яногірка", "codename": "село", "year_gp": 1971 }, "geometry": { "type": "Point", "coordinates": [ 28.10978, 48.9177 ] } },
{ "type": "Feature", "properties": { "koatuu": "0521082206", "nameua_new": "Олексіївка", "codename": "село", "year_gp": 1973 }, "geometry": { "type": "Point", "coordinates": [ 28.06122, 48.95516 ] } },
{ "type": "Feature", "properties": { "koatuu": "0520885403", "nameua_new": "Семирічка", "codename": "село", "year_gp": 1982 }, "geometry": { "type": "Point", "coordinates": [ 29.47933, 48.90235 ] } },
{ "type": "Feature", "properties": { "koatuu": "0522485801", "nameua_new": "Осолинка", "codename": "село", "year_gp": 1987 }, "geometry": { "type": "Point", "coordinates": [ 28.1152, 49.41747 ] } },
{ "type": "Feature", "properties": { "koatuu": "0522485802", "nameua_new": "Кам'янка", "codename": "село", "year_gp": 1987 }, "geometry": { "type": "Point", "coordinates": [ 28.08976, 49.44373 ] } },
{ "type": "Feature", "properties": { "koatuu": "0522485803", "nameua_new": "Миколаївка", "codename": "село", "year_gp": 1973 }, "geometry": { "type": "Point", "coordinates": [ 28.12704, 49.43846 ] } },
{ "type": "Feature", "properties": { "koatuu": "0523481202", "nameua_new": "Скибинці", "codename": "село", "year_gp": 1970 }, "geometry": { "type": "Point", "coordinates": [ 29.50451, 49.52195 ] } },
{ "type": "Feature", "properties": { "koatuu": "0523481201", "nameua_new": "Борщагівка", "codename": "село", "year_gp": 1968 }, "geometry": { "type": "Point", "coordinates": [ 29.53341, 49.49128 ] } },
{ "type": "Feature", "properties": { "koatuu": "0520286503", "nameua_new": "Ялтушків", "codename": "село", "year_gp": 1975 }, "geometry": { "type": "Point", "coordinates": [ 27.4995, 48.99097 ] } },
{ "type": "Feature", "properties": { "koatuu": "0524955101", "nameua_new": "Йосипівка", "codename": "село", "year_gp": 1972 }, "geometry": { "type": "Point", "coordinates": [ 28.06911, 48.51989 ] } },
{ "type": "Feature", "properties": { "koatuu": "0524955100", "nameua_new": "Чернівці", "codename": "селища міського типу", "year_gp": 1986 }, "geometry": { "type": "Point", "coordinates": [ 28.1141, 48.54579 ] } },
{ "type": "Feature", "properties": { "koatuu": "0520681903", "nameua_new": "Жабелівка", "codename": "село", "year_gp": 1971 }, "geometry": { "type": "Point", "coordinates": [ 28.78061, 49.1878 ] } },
{ "type": "Feature", "properties": { "koatuu": "0522210100", "nameua_new": "Липовець", "codename": "місто", "year_gp": 1967 }, "geometry": { "type": "Point", "coordinates": [ 29.05475, 49.23061 ] } },
{ "type": "Feature", "properties": { "koatuu": "0524980301", "nameua_new": "Бабчинці", "codename": "село", "year_gp": 1996 }, "geometry": { "type": "Point", "coordinates": [ 28.17112, 48.42045 ] } },
{ "type": "Feature", "properties": { "koatuu": "0524980303", "nameua_new": "Вазлуївка", "codename": "село", "year_gp": 1996 }, "geometry": { "type": "Point", "coordinates": [ 28.15071, 48.46229 ] } },
{ "type": "Feature", "properties": { "koatuu": "0524980305", "nameua_new": "Гамулівка", "codename": "село", "year_gp": 1996 }, "geometry": { "type": "Point", "coordinates": [ 28.11036, 48.38548 ] } },
{ "type": "Feature", "properties": { "koatuu": "0524980307", "nameua_new": "Майорщина", "codename": "село", "year_gp": 1996 }, "geometry": { "type": "Point", "coordinates": [ 28.11786, 48.45121 ] } },
{ "type": "Feature", "properties": { "koatuu": "0521980201", "nameua_new": "Андріяшівка", "codename": "село", "year_gp": 1968 }, "geometry": { "type": "Point", "coordinates": [ 28.71612, 48.41013 ] } },
{ "type": "Feature", "properties": { "koatuu": "0521980203", "nameua_new": "Горби", "codename": "селище", "year_gp": null }, "geometry": { "type": "Point", "coordinates": [ 28.76352, 48.40533 ] } },
{ "type": "Feature", "properties": { "koatuu": "0521980202", "nameua_new": "Висока Гребля", "codename": "село", "year_gp": 1987 }, "geometry": { "type": "Point", "coordinates": [ 28.70112, 48.39904 ] } },
{ "type": "Feature", "properties": { "koatuu": "0523184702", "nameua_new": "Дівочина", "codename": "село", "year_gp": null }, "geometry": { "type": "Point", "coordinates": [ 29.71192, 49.1232 ] } },
{ "type": "Feature", "properties": { "koatuu": "0520684203", "nameua_new": "Некрасове", "codename": "село", "year_gp": 2014 }, "geometry": { "type": "Point", "coordinates": [ 28.21987, 49.20404 ] } },
{ "type": "Feature", "properties": { "koatuu": "0522487403", "nameua_new": "Медведівка", "codename": "село", "year_gp": 1980 }, "geometry": { "type": "Point", "coordinates": [ 27.88084, 49.4245 ] } },
{ "type": "Feature", "properties": { "koatuu": "0522682103", "nameua_new": "Воєводчинці", "codename": "село", "year_gp": 1978 }, "geometry": { "type": "Point", "coordinates": [ 27.87713, 48.4977 ] } },
{ "type": "Feature", "properties": { "koatuu": "0522682101", "nameua_new": "Сказинці", "codename": "село", "year_gp": 1968 }, "geometry": { "type": "Point", "coordinates": [ 27.90095, 48.50976 ] } },
{ "type": "Feature", "properties": { "koatuu": "0522682105", "nameua_new": "Коштуля", "codename": "селище", "year_gp": null }, "geometry": { "type": "Point", "coordinates": [ 27.94327, 48.54581 ] } },
{ "type": "Feature", "properties": { "koatuu": "0520486403", "nameua_new": "Чернятка", "codename": "село", "year_gp": 1986 }, "geometry": { "type": "Point", "coordinates": [ 29.72562, 48.49198 ] } },
{ "type": "Feature", "properties": { "koatuu": "0510400000", "nameua_new": "Могилів-Подільський", "codename": "місто", "year_gp": 1999 }, "geometry": { "type": "Point", "coordinates": [ 27.79842, 48.45186 ] } },
{ "type": "Feature", "properties": { "koatuu": "0510400001", "nameua_new": "Одая", "codename": "селище", "year_gp": 1999 }, "geometry": { "type": "Point", "coordinates": [ 27.84939, 48.41571 ] } },
{ "type": "Feature", "properties": { "koatuu": "0521282806", "nameua_new": "Шабельня", "codename": "село", "year_gp": 1971 }, "geometry": { "type": "Point", "coordinates": [ 29.3256, 48.99767 ] } },
{ "type": "Feature", "properties": { "koatuu": "0510300000", "nameua_new": "Жмеринка", "codename": "місто", "year_gp": 1983 }, "geometry": { "type": "Point", "coordinates": [ 28.10663, 49.03527 ] } },
{ "type": "Feature", "properties": { "koatuu": "0521282803", "nameua_new": "Кальник", "codename": "село", "year_gp": 1968 }, "geometry": { "type": "Point", "coordinates": [ 29.38589, 49.03484 ] } },
{ "type": "Feature", "properties": { "koatuu": "0523081602", "nameua_new": "Гута", "codename": "село", "year_gp": null }, "geometry": { "type": "Point", "coordinates": [ 29.11668, 48.90503 ] } },
{ "type": "Feature", "properties": { "koatuu": "0525381803", "nameua_new": "Довжок", "codename": "село", "year_gp": 1972 }, "geometry": { "type": "Point", "coordinates": [ 28.231, 48.73238 ] } },
{ "type": "Feature", "properties": { "koatuu": "0525381801", "nameua_new": "Мурафа", "codename": "село", "year_gp": 1970 }, "geometry": { "type": "Point", "coordinates": [ 28.21957, 48.76721 ] } },
{ "type": "Feature", "properties": { "koatuu": "0524383203", "nameua_new": "Федьківка", "codename": "селище", "year_gp": null }, "geometry": { "type": "Point", "coordinates": [ 29.022, 48.62576 ] } },
{ "type": "Feature", "properties": { "koatuu": "0524383202", "nameua_new": "Гути", "codename": "село", "year_gp": 1973 }, "geometry": { "type": "Point", "coordinates": [ 29.09498, 48.6708 ] } },
{ "type": "Feature", "properties": { "koatuu": "0524383201", "nameua_new": "Клебань", "codename": "село", "year_gp": 1966 }, "geometry": { "type": "Point", "coordinates": [ 29.0181, 48.66221 ] } },
{ "type": "Feature", "properties": { "koatuu": "0521087503", "nameua_new": "Чернятин", "codename": "село", "year_gp": 1980 }, "geometry": { "type": "Point", "coordinates": [ 27.91097, 49.04666 ] } },
{ "type": "Feature", "properties": { "koatuu": "0521087506", "nameua_new": "Слобода-Чернятинська", "codename": "село", "year_gp": 1980 }, "geometry": { "type": "Point", "coordinates": [ 27.88578, 49.02627 ] } },
{ "type": "Feature", "properties": { "koatuu": "0523982001", "nameua_new": "Колоденка", "codename": "село", "year_gp": 1968 }, "geometry": { "type": "Point", "coordinates": [ 28.72449, 48.51992 ] } },
{ "type": "Feature", "properties": { "koatuu": "0524180802", "nameua_new": "Верхівське", "codename": "селище", "year_gp": null }, "geometry": { "type": "Point", "coordinates": [ 29.1219, 48.4325 ] } },
{ "type": "Feature", "properties": { "koatuu": "0524180803", "nameua_new": "Козинці", "codename": "село", "year_gp": 1973 }, "geometry": { "type": "Point", "coordinates": [ 29.12461, 48.45559 ] } },
{ "type": "Feature", "properties": { "koatuu": "0524180801", "nameua_new": "Верхівка", "codename": "село", "year_gp": 1967 }, "geometry": { "type": "Point", "coordinates": [ 29.16497, 48.44312 ] } },
{ "type": "Feature", "properties": { "koatuu": "0522283801", "nameua_new": "Нападівка", "codename": "село", "year_gp": 1969 }, "geometry": { "type": "Point", "coordinates": [ 29.13499, 49.27356 ] } },
{ "type": "Feature", "properties": { "koatuu": "0522283802", "nameua_new": "Вікентіївка", "codename": "село", "year_gp": null }, "geometry": { "type": "Point", "coordinates": [ 29.09299, 49.24852 ] } },
{ "type": "Feature", "properties": { "koatuu": "0523083601", "nameua_new": "Зяньківці", "codename": "село", "year_gp": 1971 }, "geometry": { "type": "Point", "coordinates": [ 29.09167, 48.81352 ] } },
{ "type": "Feature", "properties": { "koatuu": "0523083602", "nameua_new": "Анциполівка", "codename": "село", "year_gp": null }, "geometry": { "type": "Point", "coordinates": [ 29.09846, 48.79963 ] } },
{ "type": "Feature", "properties": { "koatuu": "0521083409", "nameua_new": "Новоселиця", "codename": "село", "year_gp": 1972 }, "geometry": { "type": "Point", "coordinates": [ 28.04534, 49.16928 ] } },
{ "type": "Feature", "properties": { "koatuu": "0521082803", "nameua_new": "Кацмазів", "codename": "село", "year_gp": 1968 }, "geometry": { "type": "Point", "coordinates": [ 27.94102, 48.90003 ] } },
{ "type": "Feature", "properties": { "koatuu": "0521083406", "nameua_new": "Василівка", "codename": "селище", "year_gp": null }, "geometry": { "type": "Point", "coordinates": [ 28.02015, 49.18807 ] } },
{ "type": "Feature", "properties": { "koatuu": "0521082806", "nameua_new": "Настасіївка", "codename": "селище", "year_gp": null }, "geometry": { "type": "Point", "coordinates": [ 27.91589, 48.91164 ] } },
{ "type": "Feature", "properties": { "koatuu": "0521083403", "nameua_new": "Курилівці", "codename": "село", "year_gp": 1968 }, "geometry": { "type": "Point", "coordinates": [ 27.98959, 49.17008 ] } },
{ "type": "Feature", "properties": { "koatuu": "0524155100", "nameua_new": "Тростянець", "codename": "селища міського типу", "year_gp": 2014 }, "geometry": { "type": "Point", "coordinates": [ 29.21896, 48.51043 ] } },
{ "type": "Feature", "properties": { "koatuu": "0524581301", "nameua_new": "Велика Вулига", "codename": "село", "year_gp": 1971 }, "geometry": { "type": "Point", "coordinates": [ 28.57912, 48.85958 ] } },
{ "type": "Feature", "properties": { "koatuu": "0523482001", "nameua_new": "Довгалівка", "codename": "село", "year_gp": 1969 }, "geometry": { "type": "Point", "coordinates": [ 29.51908, 49.42091 ] } },
{ "type": "Feature", "properties": { "koatuu": "0524886801", "nameua_new": "Соколова", "codename": "село", "year_gp": 1974 }, "geometry": { "type": "Point", "coordinates": [ 27.89716, 49.57042 ] } },
{ "type": "Feature", "properties": { "koatuu": "0521280406", "nameua_new": "Даньківка", "codename": "село", "year_gp": 2017 }, "geometry": { "type": "Point", "coordinates": [ 29.31549, 49.10333 ] } },
{ "type": "Feature", "properties": { "koatuu": "0525682401", "nameua_new": "Довжок", "codename": "село", "year_gp": 1968 }, "geometry": { "type": "Point", "coordinates": [ 28.5209, 48.23883 ] } },
{ "type": "Feature", "properties": { "koatuu": "0522687201", "nameua_new": "Тропове", "codename": "село", "year_gp": 1969 }, "geometry": { "type": "Point", "coordinates": [ 27.94376, 48.65184 ] } },
{ "type": "Feature", "properties": { "koatuu": "0521280403", "nameua_new": "Бабин", "codename": "село", "year_gp": 2017 }, "geometry": { "type": "Point", "coordinates": [ 29.32272, 49.13217 ] } },
{ "type": "Feature", "properties": { "koatuu": "0521280409", "nameua_new": "Дашів", "codename": "село", "year_gp": null }, "geometry": { "type": "Point", "coordinates": [ 29.32046, 49.1226 ] } },
{ "type": "Feature", "properties": { "koatuu": "0520285609", "nameua_new": "Регентівка", "codename": "село", "year_gp": null }, "geometry": { "type": "Point", "coordinates": [ 27.59728, 49.03881 ] } },
{ "type": "Feature", "properties": { "koatuu": "0520285603", "nameua_new": "Чемериське", "codename": "село", "year_gp": 1972 }, "geometry": { "type": "Point", "coordinates": [ 27.58295, 49.04497 ] } },
{ "type": "Feature", "properties": { "koatuu": "0520285606", "nameua_new": "Борщі", "codename": "село", "year_gp": null }, "geometry": { "type": "Point", "coordinates": [ 27.56264, 49.04913 ] } },
{ "type": "Feature", "properties": { "koatuu": "0524885803", "nameua_new": "Чернятинці", "codename": "село", "year_gp": 1971 }, "geometry": { "type": "Point", "coordinates": [ 28.16658, 49.63905 ] } },
{ "type": "Feature", "properties": { "koatuu": "0520483003", "nameua_new": "Маньківка", "codename": "село", "year_gp": 1968 }, "geometry": { "type": "Point", "coordinates": [ 29.63175, 48.48389 ] } },
{ "type": "Feature", "properties": { "koatuu": "0521483403", "nameua_new": "Кордишівка", "codename": "село", "year_gp": 1971 }, "geometry": { "type": "Point", "coordinates": [ 28.85153, 49.65419 ] } },
{ "type": "Feature", "properties": { "koatuu": "0521483406", "nameua_new": "Королівка", "codename": "село", "year_gp": 1993 }, "geometry": { "type": "Point", "coordinates": [ 28.90751, 49.66938 ] } },
{ "type": "Feature", "properties": { "koatuu": "0521483409", "nameua_new": "Прушинка", "codename": "село", "year_gp": 1975 }, "geometry": { "type": "Point", "coordinates": [ 28.88542, 49.65067 ] } },
{ "type": "Feature", "properties": { "koatuu": "0524582203", "nameua_new": "Кобелецьке", "codename": "село", "year_gp": 1973 }, "geometry": { "type": "Point", "coordinates": [ 28.30487, 48.93518 ] } },
{ "type": "Feature", "properties": { "koatuu": "0524582201", "nameua_new": "Гришівці", "codename": "село", "year_gp": 1971 }, "geometry": { "type": "Point", "coordinates": [ 28.34474, 48.94838 ] } },
{ "type": "Feature", "properties": { "koatuu": "0525683201", "nameua_new": "Клембівка", "codename": "село", "year_gp": 1975 }, "geometry": { "type": "Point", "coordinates": [ 28.41058, 48.39075 ] } },
{ "type": "Feature", "properties": { "koatuu": "0524582802", "nameua_new": "Кліщів", "codename": "село", "year_gp": null }, "geometry": { "type": "Point", "coordinates": [ 28.56309, 49.00746 ] } },
{ "type": "Feature", "properties": { "koatuu": "0524883501", "nameua_new": "Кустівці", "codename": "село", "year_gp": 1972 }, "geometry": { "type": "Point", "coordinates": [ 28.35686, 49.64264 ] } },
{ "type": "Feature", "properties": { "koatuu": "0521085806", "nameua_new": "Травневе", "codename": "селище", "year_gp": null }, "geometry": { "type": "Point", "coordinates": [ 28.11651, 48.94227 ] } },
{ "type": "Feature", "properties": { "koatuu": "0524883503", "nameua_new": "Рогинці", "codename": "село", "year_gp": 1971 }, "geometry": { "type": "Point", "coordinates": [ 28.3131, 49.62427 ] } },
{ "type": "Feature", "properties": { "koatuu": "0524883502", "nameua_new": "Кустовецьке", "codename": "селище", "year_gp": null }, "geometry": { "type": "Point", "coordinates": [ 28.38179, 49.68038 ] } },
{ "type": "Feature", "properties": { "koatuu": "0521085803", "nameua_new": "Станіславчик", "codename": "село", "year_gp": 1965 }, "geometry": { "type": "Point", "coordinates": [ 28.10674, 48.97359 ] } },
{ "type": "Feature", "properties": { "koatuu": "0522287003", "nameua_new": "Королівка", "codename": "село", "year_gp": null }, "geometry": { "type": "Point", "coordinates": [ 28.89184, 49.23339 ] } },
{ "type": "Feature", "properties": { "koatuu": "0524182701", "nameua_new": "Капустяни", "codename": "село", "year_gp": 1983 }, "geometry": { "type": "Point", "coordinates": [ 29.02331, 48.53043 ] } },
{ "type": "Feature", "properties": { "koatuu": "0524982001", "nameua_new": "Вила-Ярузькі", "codename": "село", "year_gp": 1970 }, "geometry": { "type": "Point", "coordinates": [ 28.03746, 48.44491 ] } },
{ "type": "Feature", "properties": { "koatuu": "0520883612", "nameua_new": "Мар'янівка", "codename": "село", "year_gp": 1976 }, "geometry": { "type": "Point", "coordinates": [ 29.36214, 48.77691 ] } },
{ "type": "Feature", "properties": { "koatuu": "0521480809", "nameua_new": "Верболози", "codename": "село", "year_gp": 1972 }, "geometry": { "type": "Point", "coordinates": [ 28.85589, 49.80024 ] } },
{ "type": "Feature", "properties": { "koatuu": "0520484803", "nameua_new": "Ставки", "codename": "село", "year_gp": 1986 }, "geometry": { "type": "Point", "coordinates": [ 29.78134, 48.38345 ] } },
{ "type": "Feature", "properties": { "koatuu": "0521481003", "nameua_new": "Вовчинець", "codename": "село", "year_gp": 1972 }, "geometry": { "type": "Point", "coordinates": [ 28.56364, 49.74866 ] } },
{ "type": "Feature", "properties": { "koatuu": "0524187601", "nameua_new": "Четвертинівка", "codename": "село", "year_gp": 1967 }, "geometry": { "type": "Point", "coordinates": [ 29.28481, 48.58914 ] } },
{ "type": "Feature", "properties": { "koatuu": "0521682406", "nameua_new": "Весела", "codename": "село", "year_gp": 1986 }, "geometry": { "type": "Point", "coordinates": [ 28.6937, 49.60879 ] } },
{ "type": "Feature", "properties": { "koatuu": "0521682403", "nameua_new": "Заливанщина", "codename": "село", "year_gp": 1970 }, "geometry": { "type": "Point", "coordinates": [ 28.65139, 49.56374 ] } },
{ "type": "Feature", "properties": { "koatuu": "0522682802", "nameua_new": "Іракліївка", "codename": "село", "year_gp": null }, "geometry": { "type": "Point", "coordinates": [ 27.63948, 48.62479 ] } },
{ "type": "Feature", "properties": { "koatuu": "0522682801", "nameua_new": "Жеребилівка", "codename": "село", "year_gp": 1968 }, "geometry": { "type": "Point", "coordinates": [ 27.63499, 48.60098 ] } },
{ "type": "Feature", "properties": { "koatuu": "0521682409", "nameua_new": "Первомайське", "codename": "селище", "year_gp": 1986 }, "geometry": { "type": "Point", "coordinates": [ 28.70539, 49.57741 ] } },
{ "type": "Feature", "properties": { "koatuu": "0520885406", "nameua_new": "Рахни", "codename": "село", "year_gp": 1972 }, "geometry": { "type": "Point", "coordinates": [ 29.44046, 48.93004 ] } },
{ "type": "Feature", "properties": { "koatuu": "0522884805", "nameua_new": "Привітне", "codename": "село", "year_gp": 1975 }, "geometry": { "type": "Point", "coordinates": [ 27.8157, 48.79059 ] } },
{ "type": "Feature", "properties": { "koatuu": "0520885409", "nameua_new": "Хороша", "codename": "селище", "year_gp": null }, "geometry": { "type": "Point", "coordinates": [ 29.45165, 48.90588 ] } },
{ "type": "Feature", "properties": { "koatuu": "0522482203", "nameua_new": "Лукашівка", "codename": "село", "year_gp": 1971 }, "geometry": { "type": "Point", "coordinates": [ 28.25911, 49.27586 ] } },
{ "type": "Feature", "properties": { "koatuu": "0522482202", "nameua_new": "Іскриня", "codename": "село", "year_gp": 1985 }, "geometry": { "type": "Point", "coordinates": [ 28.24993, 49.33209 ] } },
{ "type": "Feature", "properties": { "koatuu": "0522482201", "nameua_new": "Дашківці", "codename": "село", "year_gp": 1985 }, "geometry": { "type": "Point", "coordinates": [ 28.26794, 49.30048 ] } },
{ "type": "Feature", "properties": { "koatuu": "0524510500", "nameua_new": "Гнівань", "codename": "місто", "year_gp": 1994 }, "geometry": { "type": "Point", "coordinates": [ 28.34446, 49.09584 ] } },
{ "type": "Feature", "properties": { "koatuu": "0524510501", "nameua_new": "Грижинці", "codename": "село", "year_gp": 1970 }, "geometry": { "type": "Point", "coordinates": [ 28.39619, 49.08849 ] } },
{ "type": "Feature", "properties": { "koatuu": "0523080701", "nameua_new": "Бугаків", "codename": "село", "year_gp": 1971 }, "geometry": { "type": "Point", "coordinates": [ 28.93628, 48.90194 ] } },
{ "type": "Feature", "properties": { "koatuu": "0523084603", "nameua_new": "Чаульське", "codename": "село", "year_gp": null }, "geometry": { "type": "Point", "coordinates": [ 28.68593, 49.07577 ] } },
{ "type": "Feature", "properties": { "koatuu": "0524981203", "nameua_new": "Лужок", "codename": "село", "year_gp": null }, "geometry": { "type": "Point", "coordinates": [ 28.10796, 48.57841 ] } },
{ "type": "Feature", "properties": { "koatuu": "0524981201", "nameua_new": "Березівка", "codename": "село", "year_gp": 1970 }, "geometry": { "type": "Point", "coordinates": [ 28.10602, 48.60537 ] } },
{ "type": "Feature", "properties": { "koatuu": "0525387601", "nameua_new": "Сапіжанка", "codename": "село", "year_gp": 1970 }, "geometry": { "type": "Point", "coordinates": [ 28.30029, 48.64009 ] } },
{ "type": "Feature", "properties": { "koatuu": "0525387801", "nameua_new": "Стрільники", "codename": "село", "year_gp": 1970 }, "geometry": { "type": "Point", "coordinates": [ 28.40888, 48.79217 ] } },
{ "type": "Feature", "properties": { "koatuu": "0522287005", "nameua_new": "Підлісне", "codename": "селище", "year_gp": null }, "geometry": { "type": "Point", "coordinates": [ 28.88769, 49.19574 ] } },
{ "type": "Feature", "properties": { "koatuu": "0522287001", "nameua_new": "Щаслива", "codename": "село", "year_gp": 1967 }, "geometry": { "type": "Point", "coordinates": [ 28.89676, 49.20557 ] } },
{ "type": "Feature", "properties": { "koatuu": "0522287002", "nameua_new": "Білозерівка", "codename": "село", "year_gp": 1971 }, "geometry": { "type": "Point", "coordinates": [ 28.87623, 49.22572 ] } },
{ "type": "Feature", "properties": { "koatuu": "0520681803", "nameua_new": "Дорожне", "codename": "село", "year_gp": 1988 }, "geometry": { "type": "Point", "coordinates": [ 28.51068, 49.37046 ] } },
{ "type": "Feature", "properties": { "koatuu": "0522884803", "nameua_new": "Малий Обухів", "codename": "селище", "year_gp": 1975 }, "geometry": { "type": "Point", "coordinates": [ 27.75957, 48.78068 ] } },
{ "type": "Feature", "properties": { "koatuu": "0521480203", "nameua_new": "Безіменне", "codename": "село", "year_gp": 1968 }, "geometry": { "type": "Point", "coordinates": [ 28.55315, 49.69852 ] } },
{ "type": "Feature", "properties": { "koatuu": "0522884801", "nameua_new": "Обухів", "codename": "село", "year_gp": 2013 }, "geometry": { "type": "Point", "coordinates": [ 27.76305, 48.79847 ] } },
{ "type": "Feature", "properties": { "koatuu": "0521480206", "nameua_new": "Молодіжне", "codename": "село", "year_gp": 1972 }, "geometry": { "type": "Point", "coordinates": [ 28.49472, 49.68548 ] } },
{ "type": "Feature", "properties": { "koatuu": "0525080401", "nameua_new": "Білий Камінь", "codename": "село", "year_gp": 1970 }, "geometry": { "type": "Point", "coordinates": [ 29.37423, 48.266 ] } },
{ "type": "Feature", "properties": { "koatuu": "0523255400", "nameua_new": "Рудниця", "codename": "селища міського типу", "year_gp": 1971 }, "geometry": { "type": "Point", "coordinates": [ 28.93619, 48.25602 ] } },
{ "type": "Feature", "properties": { "koatuu": "0522884804", "nameua_new": "Берлядка", "codename": "село", "year_gp": 1975 }, "geometry": { "type": "Point", "coordinates": [ 27.78166, 48.81422 ] } },
{ "type": "Feature", "properties": { "koatuu": "0521480209", "nameua_new": "Молотківці", "codename": "село", "year_gp": 1971 }, "geometry": { "type": "Point", "coordinates": [ 28.52759, 49.71247 ] } },
{ "type": "Feature", "properties": { "koatuu": "0520482403", "nameua_new": "Красносілка", "codename": "село", "year_gp": 1968 }, "geometry": { "type": "Point", "coordinates": [ 29.62372, 48.5038 ] } },
{ "type": "Feature", "properties": { "koatuu": "0520282815", "nameua_new": "Квітка", "codename": "село", "year_gp": null }, "geometry": { "type": "Point", "coordinates": [ 27.79816, 49.17392 ] } },
{ "type": "Feature", "properties": { "koatuu": "0520282812", "nameua_new": "Зоряне", "codename": "село", "year_gp": null }, "geometry": { "type": "Point", "coordinates": [ 27.78372, 49.18206 ] } },
{ "type": "Feature", "properties": { "koatuu": "0520881503", "nameua_new": "Губник", "codename": "селище", "year_gp": 1984 }, "geometry": { "type": "Point", "coordinates": [ 29.36093, 48.62014 ] } },
{ "type": "Feature", "properties": { "koatuu": "0520881506", "nameua_new": "Губник", "codename": "село", "year_gp": 1969 }, "geometry": { "type": "Point", "coordinates": [ 29.32734, 48.61588 ] } },
{ "type": "Feature", "properties": { "koatuu": "0524184804", "nameua_new": "Китайгород", "codename": "село", "year_gp": 1972 }, "geometry": { "type": "Point", "coordinates": [ 29.0036, 48.48601 ] } },
{ "type": "Feature", "properties": { "koatuu": "0524184802", "nameua_new": "Довжок", "codename": "селище", "year_gp": 1984 }, "geometry": { "type": "Point", "coordinates": [ 29.05927, 48.45916 ] } },
{ "type": "Feature", "properties": { "koatuu": "0524184803", "nameua_new": "Зелений Довжок", "codename": "селище", "year_gp": null }, "geometry": { "type": "Point", "coordinates": [ 29.01747, 48.4582 ] } },
{ "type": "Feature", "properties": { "koatuu": "0524184801", "nameua_new": "Савинці", "codename": "село", "year_gp": 1970 }, "geometry": { "type": "Point", "coordinates": [ 29.05428, 48.4778 ] } },
{ "type": "Feature", "properties": { "koatuu": "0523080802", "nameua_new": "Березівка", "codename": "село", "year_gp": 1981 }, "geometry": { "type": "Point", "coordinates": [ 28.87658, 48.93301 ] } },
{ "type": "Feature", "properties": { "koatuu": "0523080801", "nameua_new": "Велика Бушинка", "codename": "село", "year_gp": 1968 }, "geometry": { "type": "Point", "coordinates": [ 28.83299, 48.93192 ] } },
{ "type": "Feature", "properties": { "koatuu": "0523487201", "nameua_new": "Надросся", "codename": "село", "year_gp": 1971 }, "geometry": { "type": "Point", "coordinates": [ 29.08368, 49.41378 ] } },
{ "type": "Feature", "properties": { "koatuu": "0523487202", "nameua_new": "Булаї", "codename": "село", "year_gp": 1970 }, "geometry": { "type": "Point", "coordinates": [ 29.10751, 49.41576 ] } },
{ "type": "Feature", "properties": { "koatuu": "0520655900", "nameua_new": "Стрижавка", "codename": "селища міського типу", "year_gp": 1967 }, "geometry": { "type": "Point", "coordinates": [ 28.48128, 49.31053 ] } },
{ "type": "Feature", "properties": { "koatuu": "0520655903", "nameua_new": "Славне", "codename": "селище", "year_gp": 2017 }, "geometry": { "type": "Point", "coordinates": [ 28.54598, 49.32032 ] } },
{ "type": "Feature", "properties": { "koatuu": "0521610109", "nameua_new": "Прилуцьке", "codename": "село", "year_gp": null }, "geometry": { "type": "Point", "coordinates": [ 28.5951, 49.42084 ] } },
{ "type": "Feature", "properties": { "koatuu": "0521610103", "nameua_new": "Калинівка Друга", "codename": "селище", "year_gp": 1983 }, "geometry": { "type": "Point", "coordinates": [ 28.48246, 49.45735 ] } },
{ "type": "Feature", "properties": { "koatuu": "0521610100", "nameua_new": "Калинівка", "codename": "місто", "year_gp": 1994 }, "geometry": { "type": "Point", "coordinates": [ 28.52593, 49.44472 ] } },
{ "type": "Feature", "properties": { "koatuu": "0524885002", "nameua_new": "Лісогірка", "codename": "село", "year_gp": null }, "geometry": { "type": "Point", "coordinates": [ 27.90302, 49.76032 ] } },
{ "type": "Feature", "properties": { "koatuu": "0524885003", "nameua_new": "Володимирівка", "codename": "село", "year_gp": null }, "geometry": { "type": "Point", "coordinates": [ 27.83842, 49.73282 ] } },
{ "type": "Feature", "properties": { "koatuu": "0524885001", "nameua_new": "Мар'янівка", "codename": "село", "year_gp": 1971 }, "geometry": { "type": "Point", "coordinates": [ 27.89157, 49.73626 ] } },
{ "type": "Feature", "properties": { "koatuu": "0521485803", "nameua_new": "Перемога", "codename": "село", "year_gp": 1970 }, "geometry": { "type": "Point", "coordinates": [ 28.64698, 49.66391 ] } },
{ "type": "Feature", "properties": { "koatuu": "0521485806", "nameua_new": "Немиринці", "codename": "село", "year_gp": 1971 }, "geometry": { "type": "Point", "coordinates": [ 28.57858, 49.64406 ] } },
{ "type": "Feature", "properties": { "koatuu": "0523181701", "nameua_new": "Заруддя", "codename": "село", "year_gp": 1984 }, "geometry": { "type": "Point", "coordinates": [ 29.48045, 49.15634 ] } },
{ "type": "Feature", "properties": { "koatuu": "0523181702", "nameua_new": "Гоноратка", "codename": "село", "year_gp": 1984 }, "geometry": { "type": "Point", "coordinates": [ 29.52319, 49.14819 ] } },
{ "type": "Feature", "properties": { "koatuu": "0525084401", "nameua_new": "Ольгопіль", "codename": "село", "year_gp": 1975 }, "geometry": { "type": "Point", "coordinates": [ 29.4881, 48.19225 ] } },
{ "type": "Feature", "properties": { "koatuu": "0524383302", "nameua_new": "Гуральня", "codename": "селище", "year_gp": null }, "geometry": { "type": "Point", "coordinates": [ 28.73597, 48.68436 ] } },
{ "type": "Feature", "properties": { "koatuu": "0524383303", "nameua_new": "Щурі", "codename": "селище", "year_gp": null }, "geometry": { "type": "Point", "coordinates": [ 28.76772, 48.69469 ] } },
{ "type": "Feature", "properties": { "koatuu": "0524383301", "nameua_new": "Копіївка", "codename": "село", "year_gp": 1972 }, "geometry": { "type": "Point", "coordinates": [ 28.71681, 48.71147 ] } },
{ "type": "Feature", "properties": { "koatuu": "0521984201", "nameua_new": "Красносілка", "codename": "село", "year_gp": 1967 }, "geometry": { "type": "Point", "coordinates": [ 28.83463, 48.33905 ] } },
{ "type": "Feature", "properties": { "koatuu": "0521984203", "nameua_new": "Залісся", "codename": "село", "year_gp": null }, "geometry": { "type": "Point", "coordinates": [ 28.81741, 48.31262 ] } },
{ "type": "Feature", "properties": { "koatuu": "0521984202", "nameua_new": "Вигода", "codename": "селище", "year_gp": null }, "geometry": { "type": "Point", "coordinates": [ 28.84096, 48.31281 ] } },
{ "type": "Feature", "properties": { "koatuu": "0521980401", "nameua_new": "Вербка", "codename": "село", "year_gp": 1967 }, "geometry": { "type": "Point", "coordinates": [ 28.56785, 48.28866 ] } },
{ "type": "Feature", "properties": { "koatuu": "0521286803", "nameua_new": "Слободище", "codename": "село", "year_gp": 1970 }, "geometry": { "type": "Point", "coordinates": [ 29.59288, 48.96322 ] } },
{ "type": "Feature", "properties": { "koatuu": "0510100000", "nameua_new": "Вінниця", "codename": "місто", "year_gp": null }, "geometry": { "type": "Point", "coordinates": [ 28.46479, 49.23396 ] } },
{ "type": "Feature", "properties": { "koatuu": "0521486203", "nameua_new": "Пляхова", "codename": "село", "year_gp": 1976 }, "geometry": { "type": "Point", "coordinates": [ 28.73263, 49.74123 ] } },
{ "type": "Feature", "properties": { "koatuu": "0525384801", "nameua_new": "Лозова", "codename": "село", "year_gp": 1967 }, "geometry": { "type": "Point", "coordinates": [ 28.01132, 48.67189 ] } },
{ "type": "Feature", "properties": { "koatuu": "0525384802", "nameua_new": "Теклівка", "codename": "село", "year_gp": 1971 }, "geometry": { "type": "Point", "coordinates": [ 28.06241, 48.67317 ] } },
{ "type": "Feature", "properties": { "koatuu": "0522883301", "nameua_new": "Котюжани", "codename": "село", "year_gp": 1982 }, "geometry": { "type": "Point", "coordinates": [ 27.70222, 48.77 ] } },
{ "type": "Feature", "properties": { "koatuu": "0522883303", "nameua_new": "Вільшанка", "codename": "село", "year_gp": null }, "geometry": { "type": "Point", "coordinates": [ 27.69846, 48.80118 ] } },
{ "type": "Feature", "properties": { "koatuu": "0522883302", "nameua_new": "Блакитне", "codename": "село", "year_gp": null }, "geometry": { "type": "Point", "coordinates": [ 27.74246, 48.75149 ] } },
{ "type": "Feature", "properties": { "koatuu": "0520882409", "nameua_new": "Кисляк", "codename": "село", "year_gp": 1973 }, "geometry": { "type": "Point", "coordinates": [ 29.421, 48.84015 ] } },
{ "type": "Feature", "properties": { "koatuu": "0523085602", "nameua_new": "Червоне", "codename": "село", "year_gp": 1971 }, "geometry": { "type": "Point", "coordinates": [ 29.02208, 48.92386 ] } },
{ "type": "Feature", "properties": { "koatuu": "0523085601", "nameua_new": "Мельниківці", "codename": "село", "year_gp": null }, "geometry": { "type": "Point", "coordinates": [ 29.06145, 48.92904 ] } },
{ "type": "Feature", "properties": { "koatuu": "0520882403", "nameua_new": "Карбівка", "codename": "село", "year_gp": 1989 }, "geometry": { "type": "Point", "coordinates": [ 29.39706, 48.86567 ] } },
{ "type": "Feature", "properties": { "koatuu": "0525681603", "nameua_new": "Оксанівка", "codename": "село", "year_gp": 1969 }, "geometry": { "type": "Point", "coordinates": [ 28.18906, 48.23132 ] } },
{ "type": "Feature", "properties": { "koatuu": "0520882406", "nameua_new": "Заріччя", "codename": "село", "year_gp": null }, "geometry": { "type": "Point", "coordinates": [ 29.40733, 48.83904 ] } },
{ "type": "Feature", "properties": { "koatuu": "0520280403", "nameua_new": "Примощаниця", "codename": "село", "year_gp": 1988 }, "geometry": { "type": "Point", "coordinates": [ 27.66202, 48.90437 ] } },
{ "type": "Feature", "properties": { "koatuu": "0520280401", "nameua_new": "Верхівка", "codename": "село", "year_gp": 1990 }, "geometry": { "type": "Point", "coordinates": [ 27.65171, 48.9016 ] } },
{ "type": "Feature", "properties": { "koatuu": "0521683809", "nameua_new": "Тарасівка", "codename": "село", "year_gp": null }, "geometry": { "type": "Point", "coordinates": [ 28.58925, 49.47989 ] } },
{ "type": "Feature", "properties": { "koatuu": "0524387202", "nameua_new": "Станіславка", "codename": "село", "year_gp": 1990 }, "geometry": { "type": "Point", "coordinates": [ 28.61502, 48.66657 ] } },
{ "type": "Feature", "properties": { "koatuu": "0524387201", "nameua_new": "Юрківка", "codename": "село", "year_gp": 1990 }, "geometry": { "type": "Point", "coordinates": [ 28.57998, 48.69272 ] } },
{ "type": "Feature", "properties": { "koatuu": "0520285612", "nameua_new": "Стасюки", "codename": "село", "year_gp": null }, "geometry": { "type": "Point", "coordinates": [ 27.6125, 49.04008 ] } },
{ "type": "Feature", "properties": { "koatuu": "0520285615", "nameua_new": "Шершні", "codename": "село", "year_gp": null }, "geometry": { "type": "Point", "coordinates": [ 27.60649, 49.07102 ] } },
{ "type": "Feature", "properties": { "koatuu": "0523981901", "nameua_new": "Кислицьке", "codename": "село", "year_gp": 1969 }, "geometry": { "type": "Point", "coordinates": [ 28.67921, 48.54473 ] } },
{ "type": "Feature", "properties": { "koatuu": "0521085603", "nameua_new": "Слобода-Межирівська", "codename": "село", "year_gp": 1968 }, "geometry": { "type": "Point", "coordinates": [ 27.89694, 49.10731 ] } },
{ "type": "Feature", "properties": { "koatuu": "0523782001", "nameua_new": "Залужжя", "codename": "село", "year_gp": 1971 }, "geometry": { "type": "Point", "coordinates": [ 29.71072, 48.64685 ] } },
{ "type": "Feature", "properties": { "koatuu": "0522487003", "nameua_new": "Майдан-Бобрик", "codename": "село", "year_gp": 1984 }, "geometry": { "type": "Point", "coordinates": [ 28.21653, 49.44303 ] } },
{ "type": "Feature", "properties": { "koatuu": "0522680601", "nameua_new": "Бандишівка", "codename": "село", "year_gp": 1968 }, "geometry": { "type": "Point", "coordinates": [ 27.99953, 48.4036 ] } },
{ "type": "Feature", "properties": { "koatuu": "0521986202", "nameua_new": "Левків", "codename": "село", "year_gp": 1972 }, "geometry": { "type": "Point", "coordinates": [ 29.0606, 48.43695 ] } },
{ "type": "Feature", "properties": { "koatuu": "0521986201", "nameua_new": "Соколівка", "codename": "село", "year_gp": 1967 }, "geometry": { "type": "Point", "coordinates": [ 28.99413, 48.44223 ] } },
{ "type": "Feature", "properties": { "koatuu": "0522684501", "nameua_new": "Мервинці", "codename": "село", "year_gp": 1971 }, "geometry": { "type": "Point", "coordinates": [ 28.04866, 48.37591 ] } },
{ "type": "Feature", "properties": { "koatuu": "0522684503", "nameua_new": "Новомикільськ", "codename": "село", "year_gp": 1991 }, "geometry": { "type": "Point", "coordinates": [ 28.07874, 48.40911 ] } },
{ "type": "Feature", "properties": { "koatuu": "0520655300", "nameua_new": "Вороновиця", "codename": "селища міського типу", "year_gp": 1971 }, "geometry": { "type": "Point", "coordinates": [ 28.6923, 49.10639 ] } },
{ "type": "Feature", "properties": { "koatuu": "0522884301", "nameua_new": "Морозівка", "codename": "село", "year_gp": 1974 }, "geometry": { "type": "Point", "coordinates": [ 27.6358, 48.75098 ] } },
{ "type": "Feature", "properties": { "koatuu": "0521283203", "nameua_new": "Китайгород", "codename": "село", "year_gp": 1968 }, "geometry": { "type": "Point", "coordinates": [ 29.49649, 48.96664 ] } },
{ "type": "Feature", "properties": { "koatuu": "0521283206", "nameua_new": "Кам'яногірка", "codename": "село", "year_gp": 1971 }, "geometry": { "type": "Point", "coordinates": [ 29.47936, 48.96476 ] } },
{ "type": "Feature", "properties": { "koatuu": "0523485204", "nameua_new": "Юнашки", "codename": "село", "year_gp": 1974 }, "geometry": { "type": "Point", "coordinates": [ 29.42256, 49.49356 ] } },
{ "type": "Feature", "properties": { "koatuu": "0523485203", "nameua_new": "Кур'янці", "codename": "село", "year_gp": 1974 }, "geometry": { "type": "Point", "coordinates": [ 29.45855, 49.50941 ] } },
{ "type": "Feature", "properties": { "koatuu": "0523485202", "nameua_new": "Попівці", "codename": "село", "year_gp": 1984 }, "geometry": { "type": "Point", "coordinates": [ 29.37717, 49.52858 ] } },
{ "type": "Feature", "properties": { "koatuu": "0523485201", "nameua_new": "Саражинці", "codename": "село", "year_gp": 1972 }, "geometry": { "type": "Point", "coordinates": [ 29.38916, 49.50557 ] } },
{ "type": "Feature", "properties": { "koatuu": "0520686303", "nameua_new": "Сокиринці", "codename": "село", "year_gp": 2012 }, "geometry": { "type": "Point", "coordinates": [ 28.60459, 49.17138 ] } },
{ "type": "Feature", "properties": { "koatuu": "0524883401", "nameua_new": "Куманівці", "codename": "село", "year_gp": 1966 }, "geometry": { "type": "Point", "coordinates": [ 27.80533, 49.59495 ] } },
{ "type": "Feature", "properties": { "koatuu": "0523010100", "nameua_new": "Немирів", "codename": "місто", "year_gp": 1997 }, "geometry": { "type": "Point", "coordinates": [ 28.8475, 48.97653 ] } },
{ "type": "Feature", "properties": { "koatuu": "0524380801", "nameua_new": "Дранка", "codename": "село", "year_gp": 1970 }, "geometry": { "type": "Point", "coordinates": [ 28.86911, 48.5794 ] } },
{ "type": "Feature", "properties": { "koatuu": "0524380802", "nameua_new": "Одаї", "codename": "село", "year_gp": 1973 }, "geometry": { "type": "Point", "coordinates": [ 28.90839, 48.58334 ] } },
{ "type": "Feature", "properties": { "koatuu": "0524982305", "nameua_new": "Ясне", "codename": "селище", "year_gp": null }, "geometry": { "type": "Point", "coordinates": [ 28.23309, 48.58992 ] } },
{ "type": "Feature", "properties": { "koatuu": "0524982303", "nameua_new": "Пелинівка", "codename": "село", "year_gp": 1989 }, "geometry": { "type": "Point", "coordinates": [ 28.28561, 48.54659 ] } },
{ "type": "Feature", "properties": { "koatuu": "0524982301", "nameua_new": "Володіївці", "codename": "село", "year_gp": 1968 }, "geometry": { "type": "Point", "coordinates": [ 28.21524, 48.57474 ] } },
{ "type": "Feature", "properties": { "koatuu": "0524881802", "nameua_new": "Дібрівка", "codename": "село", "year_gp": 1981 }, "geometry": { "type": "Point", "coordinates": [ 27.921, 49.58902 ] } },
{ "type": "Feature", "properties": { "koatuu": "0524881803", "nameua_new": "Ольгине", "codename": "селище", "year_gp": null }, "geometry": { "type": "Point", "coordinates": [ 27.85041, 49.62488 ] } },
{ "type": "Feature", "properties": { "koatuu": "0521486809", "nameua_new": "Красне", "codename": "село", "year_gp": 1979 }, "geometry": { "type": "Point", "coordinates": [ 28.78889, 49.51913 ] } },
{ "type": "Feature", "properties": { "koatuu": "0521486803", "nameua_new": "Самгородок", "codename": "село", "year_gp": 1981 }, "geometry": { "type": "Point", "coordinates": [ 28.84294, 49.53204 ] } },
{ "type": "Feature", "properties": { "koatuu": "0521486806", "nameua_new": "Коритувата", "codename": "село", "year_gp": 1993 }, "geometry": { "type": "Point", "coordinates": [ 28.93087, 49.51099 ] } },
{ "type": "Feature", "properties": { "koatuu": "0521486807", "nameua_new": "Лозівка", "codename": "село", "year_gp": 1972 }, "geometry": { "type": "Point", "coordinates": [ 28.8204, 49.49523 ] } },
{ "type": "Feature", "properties": { "koatuu": "0521086806", "nameua_new": "Варжинка", "codename": "село", "year_gp": null }, "geometry": { "type": "Point", "coordinates": [ 28.03165, 48.93189 ] } },
{ "type": "Feature", "properties": { "koatuu": "0524587301", "nameua_new": "Шендерів", "codename": "село", "year_gp": 1970 }, "geometry": { "type": "Point", "coordinates": [ 28.64451, 49.05235 ] } },
{ "type": "Feature", "properties": { "koatuu": "0524587303", "nameua_new": "Потуш", "codename": "село", "year_gp": 1973 }, "geometry": { "type": "Point", "coordinates": [ 28.65051, 49.02445 ] } },
{ "type": "Feature", "properties": { "koatuu": "0522486202", "nameua_new": "Садове", "codename": "село", "year_gp": 1973 }, "geometry": { "type": "Point", "coordinates": [ 28.13833, 49.33406 ] } },
{ "type": "Feature", "properties": { "koatuu": "0522486201", "nameua_new": "Селище", "codename": "село", "year_gp": 1970 }, "geometry": { "type": "Point", "coordinates": [ 28.09253, 49.33448 ] } },
{ "type": "Feature", "properties": { "koatuu": "0520683303", "nameua_new": "Майдан", "codename": "село", "year_gp": 1968 }, "geometry": { "type": "Point", "coordinates": [ 28.26162, 49.23536 ] } },
{ "type": "Feature", "properties": { "koatuu": "0520683306", "nameua_new": "Слобода-Дашковецька", "codename": "село", "year_gp": 1972 }, "geometry": { "type": "Point", "coordinates": [ 28.27708, 49.25102 ] } },
{ "type": "Feature", "properties": { "koatuu": "0524882903", "nameua_new": "Колибабинці", "codename": "село", "year_gp": 1972 }, "geometry": { "type": "Point", "coordinates": [ 28.2018, 49.55592 ] } },
{ "type": "Feature", "properties": { "koatuu": "0525684002", "nameua_new": "Добрянка", "codename": "село", "year_gp": 1970 }, "geometry": { "type": "Point", "coordinates": [ 28.36493, 48.27936 ] } },
{ "type": "Feature", "properties": { "koatuu": "0525684003", "nameua_new": "Франківка", "codename": "село", "year_gp": null }, "geometry": { "type": "Point", "coordinates": [ 28.36602, 48.25186 ] } },
{ "type": "Feature", "properties": { "koatuu": "0523084602", "nameua_new": "Дубовець", "codename": "село", "year_gp": 1972 }, "geometry": { "type": "Point", "coordinates": [ 28.72868, 49.05704 ] } },
{ "type": "Feature", "properties": { "koatuu": "0525684001", "nameua_new": "Пороги", "codename": "село", "year_gp": 1971 }, "geometry": { "type": "Point", "coordinates": [ 28.32144, 48.23981 ] } },
{ "type": "Feature", "properties": { "koatuu": "0524882901", "nameua_new": "Кривошиї", "codename": "село", "year_gp": 1978 }, "geometry": { "type": "Point", "coordinates": [ 28.20777, 49.59953 ] } },
{ "type": "Feature", "properties": { "koatuu": "0523183601", "nameua_new": "Осична", "codename": "село", "year_gp": 1981 }, "geometry": { "type": "Point", "coordinates": [ 29.62863, 49.21614 ] } },
{ "type": "Feature", "properties": { "koatuu": "0521480212", "nameua_new": "Хліборобне", "codename": "село", "year_gp": 1986 }, "geometry": { "type": "Point", "coordinates": [ 28.55082, 49.67019 ] } },
{ "type": "Feature", "properties": { "koatuu": "0521480215", "nameua_new": "Чернички", "codename": "село", "year_gp": null }, "geometry": { "type": "Point", "coordinates": [ 28.56502, 49.72088 ] } },
{ "type": "Feature", "properties": { "koatuu": "0521282006", "nameua_new": "Сорока", "codename": "село", "year_gp": 1981 }, "geometry": { "type": "Point", "coordinates": [ 29.35618, 49.06803 ] } },
{ "type": "Feature", "properties": { "koatuu": "0521282003", "nameua_new": "Жадани", "codename": "село", "year_gp": 1971 }, "geometry": { "type": "Point", "coordinates": [ 29.38701, 49.07008 ] } },
{ "type": "Feature", "properties": { "koatuu": "0520282806", "nameua_new": "Васютинці", "codename": "село", "year_gp": 1978 }, "geometry": { "type": "Point", "coordinates": [ 27.77994, 49.1435 ] } },
{ "type": "Feature", "properties": { "koatuu": "0520282803", "nameua_new": "Лука-Барська", "codename": "село", "year_gp": 1966 }, "geometry": { "type": "Point", "coordinates": [ 27.79763, 49.15389 ] } },
{ "type": "Feature", "properties": { "koatuu": "0520282809", "nameua_new": "Горяни", "codename": "село", "year_gp": 1978 }, "geometry": { "type": "Point", "coordinates": [ 27.81745, 49.15927 ] } },
{ "type": "Feature", "properties": { "koatuu": "0523482801", "nameua_new": "Мончин", "codename": "село", "year_gp": 1971 }, "geometry": { "type": "Point", "coordinates": [ 28.97944, 49.42105 ] } },
{ "type": "Feature", "properties": { "koatuu": "0523482802", "nameua_new": "Григорівка", "codename": "селище", "year_gp": null }, "geometry": { "type": "Point", "coordinates": [ 28.87298, 49.45043 ] } },
{ "type": "Feature", "properties": { "koatuu": "0523482803", "nameua_new": "Сопин", "codename": "село", "year_gp": 1972 }, "geometry": { "type": "Point", "coordinates": [ 28.9442, 49.42628 ] } },
{ "type": "Feature", "properties": { "koatuu": "0524981503", "nameua_new": "Степок", "codename": "селище", "year_gp": null }, "geometry": { "type": "Point", "coordinates": [ 28.29337, 48.53027 ] } },
{ "type": "Feature", "properties": { "koatuu": "0522883603", "nameua_new": "Дігтярка", "codename": "селище", "year_gp": null }, "geometry": { "type": "Point", "coordinates": [ 27.5865, 48.74217 ] } },
{ "type": "Feature", "properties": { "koatuu": "0521481803", "nameua_new": "Жежелів", "codename": "село", "year_gp": 2016 }, "geometry": { "type": "Point", "coordinates": [ 28.64835, 49.7923 ] } },
{ "type": "Feature", "properties": { "koatuu": "0523787601", "nameua_new": "Удич", "codename": "село", "year_gp": 1980 }, "geometry": { "type": "Point", "coordinates": [ 29.91228, 48.63816 ] } },
{ "type": "Feature", "properties": { "koatuu": "0523787603", "nameua_new": "Червоний Кут", "codename": "село", "year_gp": null }, "geometry": { "type": "Point", "coordinates": [ 29.89597, 48.62185 ] } },
{ "type": "Feature", "properties": { "koatuu": "0524884501", "nameua_new": "Лозова", "codename": "село", "year_gp": 1970 }, "geometry": { "type": "Point", "coordinates": [ 27.83731, 49.51681 ] } },
{ "type": "Feature", "properties": { "koatuu": "0524884502", "nameua_new": "Вугли", "codename": "село", "year_gp": 1987 }, "geometry": { "type": "Point", "coordinates": [ 27.88754, 49.52298 ] } },
{ "type": "Feature", "properties": { "koatuu": "0524884503", "nameua_new": "Гулі", "codename": "село", "year_gp": null }, "geometry": { "type": "Point", "coordinates": [ 27.74144, 49.51181 ] } },
{ "type": "Feature", "properties": { "koatuu": "0524884504", "nameua_new": "Думенки", "codename": "село", "year_gp": 1975 }, "geometry": { "type": "Point", "coordinates": [ 27.79948, 49.52207 ] } },
{ "type": "Feature", "properties": { "koatuu": "0524884505", "nameua_new": "Педоси", "codename": "село", "year_gp": 1987 }, "geometry": { "type": "Point", "coordinates": [ 27.84784, 49.49684 ] } },
{ "type": "Feature", "properties": { "koatuu": "0522280207", "nameua_new": "Шендерівка", "codename": "село", "year_gp": null }, "geometry": { "type": "Point", "coordinates": [ 28.91917, 49.40973 ] } },
{ "type": "Feature", "properties": { "koatuu": "0522280203", "nameua_new": "Мала Біла", "codename": "селище", "year_gp": null }, "geometry": { "type": "Point", "coordinates": [ 28.87835, 49.38936 ] } },
{ "type": "Feature", "properties": { "koatuu": "0522280202", "nameua_new": "Нове", "codename": "село", "year_gp": null }, "geometry": { "type": "Point", "coordinates": [ 28.86453, 49.42934 ] } },
{ "type": "Feature", "properties": { "koatuu": "0522280201", "nameua_new": "Біла", "codename": "село", "year_gp": 2016 }, "geometry": { "type": "Point", "coordinates": [ 28.91735, 49.39053 ] } },
{ "type": "Feature", "properties": { "koatuu": "0520684006", "nameua_new": "Переорки", "codename": "село", "year_gp": 2014 }, "geometry": { "type": "Point", "coordinates": [ 28.40694, 49.31357 ] } },
{ "type": "Feature", "properties": { "koatuu": "0520684003", "nameua_new": "Мізяківські Хутори", "codename": "село", "year_gp": 2012 }, "geometry": { "type": "Point", "coordinates": [ 28.35808, 49.33012 ] } },
{ "type": "Feature", "properties": { "koatuu": "0521281203", "nameua_new": "Василівка", "codename": "село", "year_gp": 1988 }, "geometry": { "type": "Point", "coordinates": [ 29.26785, 49.0245 ] } },
{ "type": "Feature", "properties": { "koatuu": "0521281206", "nameua_new": "Кабатня", "codename": "село", "year_gp": null }, "geometry": { "type": "Point", "coordinates": [ 29.24085, 49.0237 ] } },
{ "type": "Feature", "properties": { "koatuu": "0521610112", "nameua_new": "Рівнинне", "codename": "селище", "year_gp": null }, "geometry": { "type": "Point", "coordinates": [ 28.59096, 49.43614 ] } },
{ "type": "Feature", "properties": { "koatuu": "0522686802", "nameua_new": "Садківці", "codename": "село", "year_gp": 1970 }, "geometry": { "type": "Point", "coordinates": [ 27.91936, 48.35414 ] } },
{ "type": "Feature", "properties": { "koatuu": "0522686801", "nameua_new": "Суботівка", "codename": "село", "year_gp": 1969 }, "geometry": { "type": "Point", "coordinates": [ 27.99952, 48.33218 ] } },
{ "type": "Feature", "properties": { "koatuu": "0522484201", "nameua_new": "Літинка", "codename": "село", "year_gp": 1987 }, "geometry": { "type": "Point", "coordinates": [ 27.9212, 49.35296 ] } },
{ "type": "Feature", "properties": { "koatuu": "0522484202", "nameua_new": "Яблунівка", "codename": "село", "year_gp": 1987 }, "geometry": { "type": "Point", "coordinates": [ 27.87006, 49.34341 ] } },
{ "type": "Feature", "properties": { "koatuu": "0524587903", "nameua_new": "Лани", "codename": "село", "year_gp": 2012 }, "geometry": { "type": "Point", "coordinates": [ 28.3995, 49.15386 ] } },
{ "type": "Feature", "properties": { "koatuu": "0524587901", "nameua_new": "Яришівка", "codename": "село", "year_gp": 2012 }, "geometry": { "type": "Point", "coordinates": [ 28.46694, 49.11543 ] } },
{ "type": "Feature", "properties": { "koatuu": "0524587905", "nameua_new": "Студениця", "codename": "село", "year_gp": null }, "geometry": { "type": "Point", "coordinates": [ 28.42114, 49.13936 ] } },
{ "type": "Feature", "properties": { "koatuu": "0524181801", "nameua_new": "Ілляшівка", "codename": "село", "year_gp": 1968 }, "geometry": { "type": "Point", "coordinates": [ 28.95745, 48.54264 ] } },
{ "type": "Feature", "properties": { "koatuu": "0524181803", "nameua_new": "Підлісне", "codename": "село", "year_gp": null }, "geometry": { "type": "Point", "coordinates": [ 28.97989, 48.55019 ] } },
{ "type": "Feature", "properties": { "koatuu": "0524181802", "nameua_new": "Красногірка", "codename": "село", "year_gp": 1971 }, "geometry": { "type": "Point", "coordinates": [ 28.91159, 48.54126 ] } },
{ "type": "Feature", "properties": { "koatuu": "0525310101", "nameua_new": "Поляна", "codename": "село", "year_gp": null }, "geometry": { "type": "Point", "coordinates": [ 28.08274, 48.77217 ] } },
{ "type": "Feature", "properties": { "koatuu": "0525310100", "nameua_new": "Шаргород", "codename": "місто", "year_gp": 1992 }, "geometry": { "type": "Point", "coordinates": [ 28.07109, 48.75785 ] } },
{ "type": "Feature", "properties": { "koatuu": "0523085801", "nameua_new": "Мухівці", "codename": "село", "year_gp": 1968 }, "geometry": { "type": "Point", "coordinates": [ 28.78972, 48.94844 ] } },
{ "type": "Feature", "properties": { "koatuu": "0523085803", "nameua_new": "Шолудьки", "codename": "село", "year_gp": 1970 }, "geometry": { "type": "Point", "coordinates": [ 28.79464, 48.9095 ] } },
{ "type": "Feature", "properties": { "koatuu": "0523085802", "nameua_new": "Мала Бушинка", "codename": "село", "year_gp": 1972 }, "geometry": { "type": "Point", "coordinates": [ 28.7599, 48.88733 ] } },
{ "type": "Feature", "properties": { "koatuu": "0522686402", "nameua_new": "Яструбна", "codename": "село", "year_gp": 1973 }, "geometry": { "type": "Point", "coordinates": [ 27.63936, 48.57541 ] } },
{ "type": "Feature", "properties": { "koatuu": "0522887102", "nameua_new": "Рясне", "codename": "село", "year_gp": null }, "geometry": { "type": "Point", "coordinates": [ 27.62873, 48.82014 ] } },
{ "type": "Feature", "properties": { "koatuu": "0522887101", "nameua_new": "Снітків", "codename": "село", "year_gp": 1983 }, "geometry": { "type": "Point", "coordinates": [ 27.63496, 48.81096 ] } },
{ "type": "Feature", "properties": { "koatuu": "0523981701", "nameua_new": "Високе", "codename": "село", "year_gp": 1973 }, "geometry": { "type": "Point", "coordinates": [ 28.79077, 48.48387 ] } },
{ "type": "Feature", "properties": { "koatuu": "0522481305", "nameua_new": "Новоселиця", "codename": "село", "year_gp": 1973 }, "geometry": { "type": "Point", "coordinates": [ 28.18117, 49.38138 ] } },
{ "type": "Feature", "properties": { "koatuu": "0522481303", "nameua_new": "Бруслинів", "codename": "село", "year_gp": 1974 }, "geometry": { "type": "Point", "coordinates": [ 28.19352, 49.41489 ] } },
{ "type": "Feature", "properties": { "koatuu": "0522880802", "nameua_new": "Виноградне", "codename": "село", "year_gp": 1972 }, "geometry": { "type": "Point", "coordinates": [ 27.45063, 48.69206 ] } },
{ "type": "Feature", "properties": { "koatuu": "0522880801", "nameua_new": "Вербовець", "codename": "село", "year_gp": 1967 }, "geometry": { "type": "Point", "coordinates": [ 27.43095, 48.72458 ] } },
{ "type": "Feature", "properties": { "koatuu": "0525610100", "nameua_new": "Ямпіль", "codename": "місто", "year_gp": 1987 }, "geometry": { "type": "Point", "coordinates": [ 28.27568, 48.2435 ] } },
{ "type": "Feature", "properties": { "koatuu": "0521084506", "nameua_new": "Рижавка", "codename": "село", "year_gp": 1972 }, "geometry": { "type": "Point", "coordinates": [ 28.29255, 49.02974 ] } },
{ "type": "Feature", "properties": { "koatuu": "0521084503", "nameua_new": "Потоки", "codename": "село", "year_gp": 1966 }, "geometry": { "type": "Point", "coordinates": [ 28.24276, 49.03091 ] } },
{ "type": "Feature", "properties": { "koatuu": "0524580403", "nameua_new": "Гута-Бушинська", "codename": "селище", "year_gp": null }, "geometry": { "type": "Point", "coordinates": [ 28.41598, 48.8381 ] } },
{ "type": "Feature", "properties": { "koatuu": "0523982601", "nameua_new": "Липівка", "codename": "село", "year_gp": 1968 }, "geometry": { "type": "Point", "coordinates": [ 28.55815, 48.53131 ] } },
{ "type": "Feature", "properties": { "koatuu": "0523783001", "nameua_new": "Комарівка", "codename": "село", "year_gp": 1970 }, "geometry": { "type": "Point", "coordinates": [ 29.83925, 48.72484 ] } },
{ "type": "Feature", "properties": { "koatuu": "0521080606", "nameua_new": "Могилівка", "codename": "село", "year_gp": 1983 }, "geometry": { "type": "Point", "coordinates": [ 28.29732, 49.09528 ] } },
{ "type": "Feature", "properties": { "koatuu": "0523084402", "nameua_new": "Будки", "codename": "село", "year_gp": 1972 }, "geometry": { "type": "Point", "coordinates": [ 28.97632, 48.95187 ] } },
{ "type": "Feature", "properties": { "koatuu": "0520484003", "nameua_new": "Поташня", "codename": "село", "year_gp": 1968 }, "geometry": { "type": "Point", "coordinates": [ 29.60706, 48.31596 ] } },
{ "type": "Feature", "properties": { "koatuu": "0524181701", "nameua_new": "Демидівка", "codename": "село", "year_gp": 1978 }, "geometry": { "type": "Point", "coordinates": [ 29.34327, 48.45411 ] } },
{ "type": "Feature", "properties": { "koatuu": "0523184801", "nameua_new": "Скала", "codename": "село", "year_gp": 1987 }, "geometry": { "type": "Point", "coordinates": [ 29.40273, 49.30444 ] } },
{ "type": "Feature", "properties": { "koatuu": "0523786001", "nameua_new": "Пологи", "codename": "село", "year_gp": 1970 }, "geometry": { "type": "Point", "coordinates": [ 29.74467, 48.57846 ] } },
{ "type": "Feature", "properties": { "koatuu": "0523786003", "nameua_new": "Лозовата", "codename": "село", "year_gp": 1970 }, "geometry": { "type": "Point", "coordinates": [ 29.71141, 48.5719 ] } },
{ "type": "Feature", "properties": { "koatuu": "0520685203", "nameua_new": "Писарівка", "codename": "село", "year_gp": 1977 }, "geometry": { "type": "Point", "coordinates": [ 28.60374, 49.19049 ] } },
{ "type": "Feature", "properties": { "koatuu": "0520685206", "nameua_new": "Щітки", "codename": "село", "year_gp": 1972 }, "geometry": { "type": "Point", "coordinates": [ 28.58485, 49.19458 ] } },
{ "type": "Feature", "properties": { "koatuu": "0524180601", "nameua_new": "Буди", "codename": "село", "year_gp": 1974 }, "geometry": { "type": "Point", "coordinates": [ 29.2328, 48.47239 ] } },
{ "type": "Feature", "properties": { "koatuu": "0524180602", "nameua_new": "Дубина", "codename": "селище", "year_gp": 1985 }, "geometry": { "type": "Point", "coordinates": [ 29.27393, 48.44637 ] } },
{ "type": "Feature", "properties": { "koatuu": "0523085701", "nameua_new": "Нові Обиходи", "codename": "село", "year_gp": null }, "geometry": { "type": "Point", "coordinates": [ 29.01647, 48.86583 ] } },
{ "type": "Feature", "properties": { "koatuu": "0523083403", "nameua_new": "Зеленянка", "codename": "село", "year_gp": 1972 }, "geometry": { "type": "Point", "coordinates": [ 28.96428, 48.91132 ] } },
{ "type": "Feature", "properties": { "koatuu": "0523083402", "nameua_new": "Вовчок", "codename": "село", "year_gp": 1968 }, "geometry": { "type": "Point", "coordinates": [ 28.87613, 48.90677 ] } },
{ "type": "Feature", "properties": { "koatuu": "0523083401", "nameua_new": "Зарудинці", "codename": "село", "year_gp": 1967 }, "geometry": { "type": "Point", "coordinates": [ 28.93086, 48.92555 ] } },
{ "type": "Feature", "properties": { "koatuu": "0523083406", "nameua_new": "Озеро", "codename": "село", "year_gp": 1973 }, "geometry": { "type": "Point", "coordinates": [ 28.90182, 48.93262 ] } },
{ "type": "Feature", "properties": { "koatuu": "0521284303", "nameua_new": "Леухи", "codename": "село", "year_gp": 1966 }, "geometry": { "type": "Point", "coordinates": [ 29.62787, 48.93727 ] } },
{ "type": "Feature", "properties": { "koatuu": "0523083404", "nameua_new": "Йосипенки", "codename": "село", "year_gp": 1981 }, "geometry": { "type": "Point", "coordinates": [ 28.90616, 48.91285 ] } },
{ "type": "Feature", "properties": { "koatuu": "0524583807", "nameua_new": "Рогізна", "codename": "село", "year_gp": 1973 }, "geometry": { "type": "Point", "coordinates": [ 28.63229, 48.88787 ] } },
{ "type": "Feature", "properties": { "koatuu": "0524583805", "nameua_new": "Польова Слобідка", "codename": "село", "year_gp": null }, "geometry": { "type": "Point", "coordinates": [ 28.62826, 48.83267 ] } },
{ "type": "Feature", "properties": { "koatuu": "0524583803", "nameua_new": "Підлісівка", "codename": "село", "year_gp": null }, "geometry": { "type": "Point", "coordinates": [ 28.64923, 48.84125 ] } },
{ "type": "Feature", "properties": { "koatuu": "0524583801", "nameua_new": "Мала Вулига", "codename": "село", "year_gp": 1971 }, "geometry": { "type": "Point", "coordinates": [ 28.62968, 48.86362 ] } },
{ "type": "Feature", "properties": { "koatuu": "0523055300", "nameua_new": "Брацлав", "codename": "селища міського типу", "year_gp": 1993 }, "geometry": { "type": "Point", "coordinates": [ 28.94883, 48.81774 ] } },
{ "type": "Feature", "properties": { "koatuu": "0521083609", "nameua_new": "Подільське", "codename": "село", "year_gp": 1973 }, "geometry": { "type": "Point", "coordinates": [ 28.07173, 49.04969 ] } },
{ "type": "Feature", "properties": { "koatuu": "0521981201", "nameua_new": "Городківка", "codename": "село", "year_gp": 1982 }, "geometry": { "type": "Point", "coordinates": [ 28.67996, 48.37567 ] } },
{ "type": "Feature", "properties": { "koatuu": "0521083606", "nameua_new": "Мала Жмеринка", "codename": "село", "year_gp": 1971 }, "geometry": { "type": "Point", "coordinates": [ 28.10008, 49.01447 ] } },
{ "type": "Feature", "properties": { "koatuu": "0520682603", "nameua_new": "Лаврівка", "codename": "село", "year_gp": 1988 }, "geometry": { "type": "Point", "coordinates": [ 28.46208, 49.34624 ] } },
{ "type": "Feature", "properties": { "koatuu": "0521083603", "nameua_new": "Леляки", "codename": "село", "year_gp": 1969 }, "geometry": { "type": "Point", "coordinates": [ 28.13048, 49.06844 ] } },
{ "type": "Feature", "properties": { "koatuu": "0522281201", "nameua_new": "Зозівка", "codename": "село", "year_gp": 1970 }, "geometry": { "type": "Point", "coordinates": [ 28.9774, 49.33332 ] } },
{ "type": "Feature", "properties": { "koatuu": "0523981801", "nameua_new": "Горишківка", "codename": "село", "year_gp": 1969 }, "geometry": { "type": "Point", "coordinates": [ 28.61347, 48.64079 ] } },
{ "type": "Feature", "properties": { "koatuu": "0523781601", "nameua_new": "Веселівка", "codename": "село", "year_gp": 1970 }, "geometry": { "type": "Point", "coordinates": [ 29.86294, 48.61913 ] } },
{ "type": "Feature", "properties": { "koatuu": "0520880903", "nameua_new": "Гранів", "codename": "село", "year_gp": 1971 }, "geometry": { "type": "Point", "coordinates": [ 29.56435, 48.8717 ] } },
{ "type": "Feature", "properties": { "koatuu": "0520680803", "nameua_new": "Великі Крушлинці", "codename": "село", "year_gp": 2016 }, "geometry": { "type": "Point", "coordinates": [ 28.728, 49.23609 ] } },
{ "type": "Feature", "properties": { "koatuu": "0520255306", "nameua_new": "Переліски", "codename": "село", "year_gp": null }, "geometry": { "type": "Point", "coordinates": [ 27.84967, 48.854 ] } },
{ "type": "Feature", "properties": { "koatuu": "0524385201", "nameua_new": "Печера", "codename": "село", "year_gp": 1978 }, "geometry": { "type": "Point", "coordinates": [ 28.71736, 48.85745 ] } },
{ "type": "Feature", "properties": { "koatuu": "0520255303", "nameua_new": "Копай", "codename": "селище", "year_gp": 1969 }, "geometry": { "type": "Point", "coordinates": [ 27.75629, 48.88374 ] } },
{ "type": "Feature", "properties": { "koatuu": "0520255300", "nameua_new": "Копайгород", "codename": "селища міського типу", "year_gp": 1977 }, "geometry": { "type": "Point", "coordinates": [ 27.80296, 48.85171 ] } },
{ "type": "Feature", "properties": { "koatuu": "0524385202", "nameua_new": "Петрашівка", "codename": "село", "year_gp": 1972 }, "geometry": { "type": "Point", "coordinates": [ 28.672, 48.79991 ] } },
{ "type": "Feature", "properties": { "koatuu": "0524887404", "nameua_new": "Тараски", "codename": "село", "year_gp": 1968 }, "geometry": { "type": "Point", "coordinates": [ 28.22994, 49.70577 ] } },
{ "type": "Feature", "properties": { "koatuu": "0524887405", "nameua_new": "Чепелі", "codename": "село", "year_gp": 1973 }, "geometry": { "type": "Point", "coordinates": [ 28.2324, 49.72696 ] } },
{ "type": "Feature", "properties": { "koatuu": "0524887401", "nameua_new": "Уланів", "codename": "село", "year_gp": 1967 }, "geometry": { "type": "Point", "coordinates": [ 28.13077, 49.69446 ] } },
{ "type": "Feature", "properties": { "koatuu": "0524887402", "nameua_new": "Воронівці", "codename": "село", "year_gp": 1968 }, "geometry": { "type": "Point", "coordinates": [ 28.17619, 49.66618 ] } },
{ "type": "Feature", "properties": { "koatuu": "0520255309", "nameua_new": "Українське", "codename": "село", "year_gp": 1969 }, "geometry": { "type": "Point", "coordinates": [ 27.83646, 48.82242 ] } },
{ "type": "Feature", "properties": { "koatuu": "0520284409", "nameua_new": "Кошаринці", "codename": "село", "year_gp": 1968 }, "geometry": { "type": "Point", "coordinates": [ 27.79172, 48.91681 ] } },
{ "type": "Feature", "properties": { "koatuu": "0520284406", "nameua_new": "Верешки", "codename": "село", "year_gp": null }, "geometry": { "type": "Point", "coordinates": [ 27.74013, 48.92192 ] } },
{ "type": "Feature", "properties": { "koatuu": "0520284403", "nameua_new": "Попівці", "codename": "село", "year_gp": 1988 }, "geometry": { "type": "Point", "coordinates": [ 27.83522, 48.90528 ] } },
{ "type": "Feature", "properties": { "koatuu": "0520682209", "nameua_new": "Рівець", "codename": "село", "year_gp": 1984 }, "geometry": { "type": "Point", "coordinates": [ 28.32635, 49.12652 ] } },
{ "type": "Feature", "properties": { "koatuu": "0520485603", "nameua_new": "Флорине", "codename": "село", "year_gp": 1990 }, "geometry": { "type": "Point", "coordinates": [ 29.52011, 48.34474 ] } },